,Unnamed: 0,id,atm_group,address,address_rus,lat,long,target,isTrain,kind
0,0,8526.0,32.0,"EMELYANOVA,34          Y-SAKHALINSK   ","улица А.О. Емельянова, 34, Южно-Сахалинск, Сахалинская область, Россия",46.940995,142.738319,0.011499820918204876,True,house
1,1,8532.0,32.0,"KOMSOMOLSKAYA,259B     Y.SAKHALINSK   ","Комсомольская улица, 259, Южно-Сахалинск, Сахалинская область, Россия",46.937353,142.753348,0.029710265035085937,True,house
2,2,8533.0,32.0,"KOMMUN. PR., 32        YUZHNO SAKHAL  ","Коммунистический проспект, Южно-Сахалинск, Сахалинская область, Россия",46.959413,142.74111299999996,0.009539960883255441,True,
3,3,8684.0,32.0,"LENINGRADSKIY PR.,76A  MOSCOW         ","Ленинградский проспект, 76А, Москва, Россия, 125315",55.805827,37.515146,-0.09403462447649943,True,house
4,4,37.0,32.0,"GVARDEYSKAYA PL., 2    NORILSK        ","Гвардейская площадь, 2, Норильск, Красноярский край, Россия, 663302",69.343541,88.211228,0.07927735200966299,True,house
5,5,313.0,32.0,"RUSSKAYA, 16           VLADIVOSTOK    ","Русская улица, 16, Владивосток, Приморский край, Россия, 690039",43.16586,131.90821200000002,-0.14500123147475488,True,house
6,6,335.0,32.0,"SHUKHOVA, 14           MOSCOW         ","улица Шухова, 14, Москва, Россия, 115162",55.716859,37.613063,-0.02468223523576437,True,house
7,7,358.0,32.0,"ADMIRALA FOKINA, 25    VLADIVOSTOK    ","улица Адмирала Фокина, 25, Владивосток, Приморский край, Россия, 690091",43.117174,131.885503,-0.13342588349623222,True,house
8,8,2895.0,32.0,Zhivopisnaia 136       d.Velednikov   ,"деревня Веледниково, городской округ Истра, Московская область, Россия",55.799765,37.116016,0.14146935333316155,True,locality
9,9,1975.0,496.5,BEKESHSKAYA 39            PENZA       ,"Бекешская улица, 39, Пенза, Россия, 440018",53.20322,44.978826,0.01725893326633763,True,house
10,10,1977.0,496.5,B.MOSKOVSKAYA 90A         VLADIMIR    ,"Большая Московская улица, 90А, Владимир, Россия, 600000",56.132925,40.419184,-0.013949004711653756,True,house
11,11,1992.0,496.5,GORKOGO 20                TAMBOV      ,"улица Максима Горького, 20, Тамбов, Россия",52.718497,41.454511,-0.04843573940879664,True,house
12,12,1998.0,496.5,KURASHOVA 28/1            YAKUTSK     ,"улица Курашова, 28/1, Якутск, Республика Саха (Якутия), Россия, 677000",62.033259,129.73638200000002,-0.06429329744918175,True,house
13,13,2006.0,496.5,LENINA 32                 MUROM       ,"улица Ленина, 32, Муром, Владимирская область, Россия, 602267",55.577108,42.05437,-0.1001214289644553,True,house
14,14,2011.0,496.5,BOROVSKAYA 5              BALABANOVO  ,"Боровская улица, 5, Балабаново, Боровский район, Калужская область, Россия, 249000",55.180598,36.655611,-0.0008294956654186244,True,house
15,15,2012.0,496.5,SOVETSKAYA 21             ZHUKOV      ,"Советская улица, 21, Жуков, Калужская область, Россия, 249191",55.027991,36.750518,-0.0476678404207127,True,house
16,16,2017.0,496.5,DORZHIEVA 24A             MUKHORSHIBIR,"улица Доржиева, 24А, село Мухоршибирь, Республика Бурятия, Россия",51.048934,107.822322,0.017372643984509075,True,house
17,17,2022.0,496.5,SADOVAYA 27B              KRIVODANOVKA,"Садовая улица, 27, село Криводановка, Новосибирский район, Новосибирская область, Россия",55.086363,82.64683000000002,-0.02765736578751833,True,house
18,18,2023.0,496.5,SOVETSKAYA 19             KUGESI      ,"Советская улица, 19, поселок городского типа Кугеси, Чебоксарский район, Чувашская Республика, Россия, 429500",56.029642,47.294593,-0.07787119186138325,True,house
19,19,2027.0,496.5,MELNIKOVA 106             CHERLAK     ,"улица Мельникова, 106, посёлок городского типа Черлак, Черлакский район, Омская область, Россия, 646250",54.151887,74.79789,-0.050626685528738495,True,house
20,20,2033.0,496.5,POBEDY 67/2               PETROPAVLOVS,"проспект Победы, 67/2, Петропавловск-Камчатский, Камчатский край, Россия, 683902",53.07080300000001,158.58751999999996,0.019060742852095674,True,house
21,21,2034.0,496.5,POLEVAYA 4                MEDVEDEVO   ,"Полевая улица, 4, посёлок городского типа Медведево, Медведевский район, Республика Марий Эл, Россия, 425200",56.63759,47.803974,-0.027475196122957755,True,house
22,22,2035.0,496.5,UPITA 5A                  KIROV       ,"улица Андрея Упита, 5А, Киров, Россия, 610050",58.605564,49.591163,-0.10137559085407266,True,house
23,23,2850.0,496.5,VOSTOCHNAYA 42/7          ORENBURG    ,"Восточная улица, 42/7, Оренбург, Россия, 460021",51.784175,55.15350400000001,-0.08652950912830405,True,house
24,24,2873.0,496.5,AMURSKAYA 13              CHITA       ,"Амурская улица, 13, Чита, Забайкальский край, Россия, 672039",52.023722,113.513428,-0.07328752900727235,True,house
25,25,2876.0,496.5,VOROVSKOGO 43             KIROV       ,"улица Воровского, 43, Киров, Россия",58.594438,49.666657,-0.11059736826592738,True,house
26,26,2877.0,496.5,LENINA 3                  PRISTEN     ,"улица Ленина, 3, посёлок городского типа Пристень, Пристенский район, Курская область, Россия, 306200",51.235052,36.694293,-0.07879399867799483,True,house
27,27,2897.0,496.5,KARLA MARKSA 76/1         KURGAN      ,"улица Карла Маркса, 76/1, Курган, Россия",55.44224499999999,65.35418,-0.02614658823194464,True,house
28,28,2900.0,496.5,KALACHINSKAYA 25          KALACHINSK  ,"Калачинская улица, 25, Калачинск, Омская область, Россия, 646900",55.047817,74.588663,0.018208827536353327,True,house
29,29,2914.0,496.5,ZAVOYKO 7                 ELIZOVO     ,"улица Завойко, 7, Елизово, Камчатский край, Россия, 684000",53.1871,158.383863,0.06135092766982592,True,house
30,30,2923.0,496.5,19-LINIYA 10              IVANOVO     ,"19-я линия, 10, Иваново, Россия, 153031",56.989885,40.932023,-0.04473002150749481,True,house
31,31,2951.0,496.5,DEYNEKI 19                KURSK       ,"улица Дейнеки, 19, микрорайон КЗТЗ, Курск, Россия, 305047",51.704063,36.142449,-0.06321061891530111,True,house
32,32,2973.0,496.5,KRASNIY PUT' 9            KRUTINKA    ,"улица Красный Путь, 9, посёлок городского типа Крутинка, Крутинский район, Омская область, Россия, 646130",56.011686,71.508439,-0.05607726556749221,True,house
33,33,4446.0,496.5,PERVOMAYSKAYA 11          POCHEP      ,"Первомайская улица, 11, Почеп, Брянская область, Россия, 243400",52.928305,33.458786,-0.07275458151164306,True,house
34,34,4447.0,496.5,OKTYABRSKAYA 138          PRYAMITSYNO ,"Октябрьская улица, 138, посёлок городского типа Прямицыно, Октябрьский район, Курская область, Россия, 307200",51.65787,35.942753,-0.11667027290152368,True,house
35,35,4458.0,496.5,BORISA BOGATKOVA 248      NOVOSIBIRSK ,"улица Бориса Богаткова, 248, Новосибирск, Россия, 630089",55.037515,82.978811,-0.14500123147475488,True,house
36,36,4466.0,496.5,GLADKOVA 10               CHEBOKSARY  ,"улица Фёдора Гладкова, 10, Чебоксары, Чувашская Республика, Россия, 428020",56.114525,47.247854,-0.07251412395184302,True,house
37,37,4470.0,496.5,LENINA 11                 KIREYEVSK   ,"улица Ленина, 11, Киреевск, Тульская область, Россия, 301260",53.928249,37.933231,0.003881073322463896,True,house
38,38,4489.0,496.5,LENINA 56                 AKSHA       ,"улица Ленина, 52/7, село Акша, Акшинский район, Забайкальский край, Россия",50.28123,113.286909,-0.05923667427441873,True,house
39,39,4491.0,496.5,VAREYKISA 2/1             ULYANOVSK   ,"улица Варейкиса, 2с1, Ульяновск, Россия",54.256466,48.324044,-0.09805944763136047,True,house
40,40,4510.0,496.5,PER. BAZARNY 4            SPASSK-DALNY,"Россия, Приморский край, Спасск-Дальний",44.597640999999996,132.81755900000002,0.039190641594625805,True,locality
41,41,4511.0,496.5,GRIGORENKO 8              LESOZAVODSK ,"улица Григоренко, 8, Лесозаводск, Приморский край, Россия",45.462274,133.403108,-0.029771982193639638,True,house
42,42,4512.0,496.5,SEMIRECHENSKAYA 93        OMSK        ,"Семиреченская улица, 93, Омск, Россия, 644016",54.931034,73.29666999999998,-0.12654526393216867,True,house
43,43,4523.0,496.5,AVTOZAVODSKAYA 56         ULYANOVSK   ,"Автозаводская улица, 56, Ульяновск, Россия, 432008",54.291753,48.315699,-0.12915527243317027,True,house
44,44,4526.0,496.5,"MOSKOVSKIY PR-T, 19B      VORONEZH    ","Московский проспект, 19, Воронеж, Россия, 394026",51.693681,39.181539,-0.059624818066358276,True,house
45,45,4542.0,496.5,B.KHMELNITSKOGO 81        EYSK        ,"улица Богдана Хмельницкого, 81, Ейск, Краснодарский край, Россия",46.69520900000001,38.283637,-0.03800440301022337,True,house
46,46,4574.0,496.5,KALININA AVE. 15/1        TVER        ,"проспект Калинина, 15с1, Тверь, Россия, 170001",56.85372,35.865292,-0.025715052607514614,True,house
47,47,4584.0,496.5,OKTIABRSKAYA 1            NAMTSY      ,"Октябрьская улица, 1, село Намцы, Намский улус, Республика Саха (Якутия), Россия, 678380",62.71844,129.66555,-0.14500123147475488,True,house
48,48,4586.0,496.5,SVOBODY 51                IVANOVO     ,"улица Свободы, 51, Иваново, Россия, 153045",57.015939,41.005425,-0.05672162737004801,True,house
49,49,4588.0,496.5,PROFINTERNA 9/25          OMSK        ,"улица Профинтерна, 9, Омск, Россия, 644082",54.933853000000006,73.33204599999998,-0.0063364060107538285,True,house
50,50,4594.0,496.5,KAZANSKY PR. 75/48        V.VOLOCHEK  ,"Казанский проспект, 75/48, Вышний Волочёк, Тверская область, Россия, 171163",57.58633,34.560713,-0.08487923386827997,True,house
51,51,4606.0,496.5,KLUCHEVSKAYA 6B           ULAN-UDE    ,"Ключевская улица, 6, Улан-Удэ, Республика Бурятия, Россия, 670013",51.820888,107.632517,0.04071184695182275,True,house
52,52,4608.0,496.5,BONDARENKO 37             IVANOVKA    ,"улица Бондаренко, 39, село Ивановка, Ивановский район, Амурская область, Россия",50.35649,128.00231000000002,0.01602564044011012,True,house
53,53,4624.0,496.5,SOVETSKAYA 29             CHERDAKLY   ,"Советская улица, 29, посёлок городского типа Чердаклы, Чердаклинский район, Ульяновская область, Россия",54.358775,48.852236,-0.038095996313162316,True,house
54,54,4649.0,496.5,LENINA 7                  YASNOGORSK  ,"улица Ленина, 7, Ясногорск, Тульская область, Россия, 301030",54.481354,37.694199,-0.09431827157465908,True,house
55,55,4655.0,496.5,"POCHTOVIY PER, 3          ELIZOVO     ","Почтовый переулок, 3, Елизово, Камчатский край, Россия, 684005",53.183976,158.387789,-0.022816323115855738,True,house
56,56,4680.0,496.5,SHUHOVA 26                TULA        ,"улица Шухова, 26, Тула, Россия, 300004",54.208238,37.669046,-0.09089617940169298,True,house
57,57,4685.0,496.5,PROLETARSKAYA 11          P.PERVOMAYSK,"Пролетарская улица, 11, Первомайск, Нижегородская область, Россия, 607760",54.865166,43.793364,0.013068622592228196,True,house
58,58,4703.0,496.5,SOVETSKAYA 21A            PETROPAVLOVK,"Советская улица, 21, Петропавловск-Камчатский, Камчатский край, Россия",53.01652900000001,158.649756,-0.11674874615724234,True,house
59,59,4712.0,496.5,LENINSKAYA 59B            ORENBURG    ,"Ленинская улица, 59, Оренбург, Россия, 460014",51.762709,55.111885,-0.1102991528731819,True,house
60,60,4713.0,496.5,"1-ST VISHNEVAYA, 17       KURSK       ","Вишневая улица, СТ Дружба-1, городской округ Ухта, Республика Коми, Россия",63.541994,53.85233,-0.05392474061619745,True,locality
61,61,8483.0,496.5,"STROITELEY AVE, 1V        PENZA       ","проспект Строителей, 1, Пенза, Россия, 440066",53.220223,44.943414,-0.03184849342291842,True,house
62,62,8486.0,496.5,MOSKOVSKAYA 83            PENZA       ,"Московская улица, 83, Пенза, Россия, 440000",53.197086,45.019035,0.0259088806733042,True,house
63,63,8487.0,496.5,MIRA 41                   PENZA       ,"улица Мира, 41, Пенза, Россия",53.188433,44.970049,-0.018226296461702655,True,house
64,64,8497.0,496.5,"TRUDOVAYA 1, K.1          RYAZAN      ","Трудовая улица, 1к1, Рязань, Россия, 390011",54.603425,39.762453,-0.116827337837667,True,house
65,65,8500.0,496.5,GAGARINA 29               KURAGINO    ,"переулок Гагарина, 29, посёлок городского типа Курагино, Курагинский район, Красноярский край, Россия, 662910",53.890961,92.68067,0.005782464391873453,True,house
66,66,8502.0,496.5,50 LET OKTYABRYA 6        VICHUGA     ,"улица 50 лет Октября, 6, Вичуга, Ивановская область, Россия, 155331",57.21764,41.937328,-0.10433068805502692,True,house
67,67,8511.0,496.5,PODROYKINA 28             BAGAEVSKAYA ,"улица Подройкина, 28, станица Багаевская, Багаевский район, Ростовская область, Россия",47.321464,40.369543,-0.03813813379425859,True,house
68,68,8518.0,496.5,KRASNOARMEYSKAYA 233      KYZYL       ,"Красноармейская улица, 233, Кызыл, Республика Тыва, Россия, 667000",51.715113,94.428118,-0.03146751178664767,True,house
69,69,8534.0,496.5,CHERNISHEVSKOGO 56/2      YAKUTSK     ,"улица Чернышевского, 56/2, Якутск, Республика Саха (Якутия), Россия, 677007",62.011688,129.721308,-0.076109205265034,True,house
70,70,8542.0,496.5,FRIDRIHA ENGELSA 88       VORONEZH    ,"улица Фридриха Энгельса, 88, Воронеж, Россия, 394018",51.65900900000001,39.187756,-0.031863878742005726,True,house
71,71,8557.0,496.5,SOVETSKAYA 54/1           DOMODEDOVO  ,"Советская улица, 54, микрорайон Северный, Домодедово, Московская область, Россия",55.443659,37.747981,0.08008944082766974,True,house
72,72,8560.0,496.5,ORDZHONIKIDZE 34          SHIMANOVSK  ,"улица Орджоникидзе, 34/25, Шимановск, Амурская область, Россия",51.996266,127.667571,-0.06168025059653893,True,house
73,73,8566.0,496.5,TEKSTILSCHIKOV 18         LENINSK-KUZN,"проспект Текстильщиков, 18, Ленинск-Кузнецкий, Кемеровская область, Россия, 652523",54.69732800000001,86.212944,-0.05952003290871191,True,house
74,74,8575.0,496.5,GAGARINA 9                CHELIABINSK ,"улица Гагарина, 9, Ленинский район, Челябинск, Россия, 454010",55.141845,61.44309499999999,-0.02900062543233648,True,house
75,75,8585.0,496.5,KIROVA 42                 CHELYABINSK ,"улица Кирова, 42, Челябинск, Россия, 454084",55.17923100000001,61.39845699999999,0.0070306132694172895,True,house
76,76,8588.0,496.5,"KIROVA AVE, 27A           PYATIGORSK  ","проспект Кирова, 27А, Пятигорск, Ставропольский край, Россия",44.03603,43.07835,-0.06341569106345421,True,house
77,77,8590.0,496.5,"OKTIABRYA AVE, 16         NIZHNIY NOVG","проспект Октября, 16, микрорайон Соцгород-I, Нижний Новгород, Россия, 603043",56.251202,43.866514,-0.048744881734817086,True,house
78,78,8594.0,496.5,"MIRA AVE, 27K/1           KUVANDYK    ","проспект Мира, 27, Кувандык, Оренбургская область, Россия, 462241",51.482219,57.376188,-0.09031216940918163,True,house
79,79,8601.0,496.5,POBEDI 31B                LESOSIBIRSK ,"улица Победы, 31, Лесосибирск, Красноярский край, Россия, 662543",58.18613000000001,92.53111,0.04380837953664935,True,house
80,80,8617.0,496.5,INDUSTRIALNAYA 30         SARAPUL     ,"Индустриальная улица, 30, Сарапул, Удмуртская Республика, Россия, 427968",56.449732,53.723485,-0.14500123147475488,True,house
81,81,8618.0,496.5,LENINA 48                 SVOBODNY    ,"улица Ленина, 48, Свободный, Амурская область, Россия",51.37197000000001,128.13935700000002,-0.12250819130927736,True,house
82,82,8619.0,496.5,STAVROPOLSKAYA 100        KRASNODAR   ,"Ставропольская улица, 100, микрорайон Черёмушки, Краснодар, Россия, 350033",45.01906,38.998633,-0.04738277255446415,True,house
83,83,8625.0,496.5,KHALTURINA 11             GELENDZHIK  ,"улица Халтурина, 11, Геленджик, Краснодарский край, Россия",44.568378,38.080115,-0.020059952730303518,True,house
84,84,8643.0,496.5,SCHETINKINA 12            TURAN       ,"улица Щетинкина, 14, Туран, Пий-Хемский кожуун, Республика Тыва, Россия",52.142246,93.922393,0.0074889981901422095,True,house
85,85,8658.0,496.5,BIRYUZOVA 31              MOSCOW      ,"улица Маршала Бирюзова, 31, Москва, Россия, 123060",55.796526,37.486859,-0.07718966161291686,True,house
86,86,8659.0,496.5,MYASNIKYANA 95            CHALTIR     ,"улица Мясникяна, 95, село Чалтырь, Мясниковский район, Ростовская область, Россия, 346800",47.28471500000001,39.500702,-0.09023119783684898,True,house
87,87,8660.0,496.5,LENINA 19                 TOSNO       ,"проспект Ленина, 19, Тосно, Тосненское городское поселение, Ленинградская область, Россия, 187000",59.547013,30.864595,-0.010322537100155724,True,house
88,88,8663.0,496.5,CHAPAEVA 2A               SERYSHEVO   ,"улица Чапаева, 2, посёлок городского типа Серышево, Серышевский район, Амурская область, Россия, 676351",51.092978,128.362247,-0.08702164994253997,True,house
89,89,8691.0,496.5,GAGARINA 14-4             P. HOVU-AKSY,"улица Гагарина, 14, село Хову-Аксы, Чеди-Хольский кожуун, Республика Тыва, Россия",51.131723,93.716464,-0.010148401162897476,True,house
90,90,8697.0,496.5,LENINA 93                 UST-LABINSK ,"улица Ленина, 93, Усть-Лабинск, Краснодарский край, Россия, 352333",45.215441,39.690147,-0.08251826011110397,True,house
91,91,8699.0,496.5,TSENTRALNAYA 45           KRASN.YARUGA,"Центральная улица, 45, посёлок городского типа Красная Яруга, Краснояружский район, Белгородская область, Россия, 309420",50.802065,35.656945,-0.04783485347896513,True,house
92,92,8700.0,496.5,BAUMANA 16                YOSHKAR-OLA ,"улица Баумана, 16, Йошкар-Ола, Республика Марий Эл, Россия, 424019",56.64108,47.84341,-0.09438394857516988,True,house
93,93,8702.0,496.5,"70 LET OKTYABRYA, 25/2    OMSK        ","улица 70 лет Октября, 25/2, Омск, Россия, 644074",54.976592,73.33403100000002,-0.08490357516611999,True,house
94,94,8709.0,496.5,KRASNOOKTYABRSKAYA 66V    MAYKOP      ,"Краснооктябрьская улица, 62, Майкоп, Республика Адыгея, Россия, 385006",44.618387,40.10746,-0.021940545842015585,True,house
95,95,8715.0,496.5,SHOLOM-ALEYHAMA 72        BIROBIDZHAN ,"улица Шолом-Алейхема, 72, Биробиджан, Еврейская автономная область, Россия, 679016",48.801131,132.906429,0.07325575442042899,True,house
96,96,8717.0,496.5,LENINA 40                 EFREMOV     ,"улица Ленина, 40, Ефремов, Тульская область, Россия, 301840",53.145073,38.105187,-0.05393145648515777,True,house
97,97,8720.0,496.5,KASHIRINIKH 124           CHELYABINSK ,"улица Братьев Кашириных, 124, Челябинск, Россия, 454128",55.174296,61.304511,-0.08112422369102341,True,house
98,98,8722.0,496.5,AVTOMOBILISTOV 4A         ULAN-UDE    ,"проспект Автомобилистов, 4Ак1, Улан-Удэ, Республика Бурятия, Россия, 670045",51.831086,107.657625,-0.11923022403327956,True,house
99,99,8731.0,496.5,YAROSLAVSKAYA 56          UGLICH      ,"Ярославская улица, 56, Углич, Ярославская область, Россия, 152610",57.53267,38.333269,-0.02330640466529364,True,house
100,100,8735.0,496.5,K.MARKSA 8                KURSK       ,"улица Карла Маркса, 8, Курск, Россия, 305004",51.750199,36.191928,-0.14175340176593873,True,house
101,101,8736.0,496.5,LUNACHARSKOGO 49          OBOYAN      ,"улица Луначарского, 49, Обоянь, Курская область, Россия",51.208488,36.280367,0.03122450469925518,True,house
102,102,8745.0,496.5,AK. KIRENSKOGO 2          KRASNOYARSK ,"улица Академика Киренского, 2, Красноярск, Россия, 660074",55.995649,92.786905,-0.09148681288490956,True,house
103,103,8750.0,496.5,LENINA 23                 BRYANSK     ,"проспект Ленина, 23, Брянск, Россия, 241050",53.239434,34.35879,-0.027333947851448426,True,house
104,104,8755.0,496.5,KIROVA 7A                 ASTRAKHAN   ,"улица Кирова, 7/28, Астрахань, Россия, 414000",46.352485,48.038362,-0.04529878585356543,True,house
105,105,8756.0,496.5,OKTYABRSKAYA 4            VOLODARSKIY ,"Октябрьская площадь, 4, посёлок городского типа Володарский, Володарский район, Астраханская область, Россия, 416170",46.402883,48.543027,-0.05870397594945995,True,house
106,106,8759.0,496.5,"NABEREZHNAYA 1 MAY, 160   ASTRAKHAN   ","улица Набережная 1 Мая, 160/94, Астрахань, Россия, 414000",46.343234,48.051675,-0.07256212672580185,True,house
107,107,8770.0,496.5,BEZHITSKAYA 1/5           BRYANSK     ,"Бежицкая улица, 1к5, Брянск, Россия, 241007",53.268374,34.355008000000005,-0.04295661014204959,True,house
108,108,8771.0,496.5,KRILATAYA 2               KRASNODAR   ,"Крылатая улица, 2, жилой массив Пашковский, Краснодар, Россия, 350023",45.011446,39.122529,-0.06185199719608433,True,house
109,109,8781.0,496.5,SOVETSKIY 3               BIKIN       ,"Советский переулок, 3, Бикин, Хабаровский край, Россия, 682970",46.824789,134.25341699999998,-0.0034579326085033856,True,house
110,110,8790.0,496.5,PUSHKINA 22               ELETS       ,"улица Пушкина, 22, Елец, Липецкая область, Россия, 399772",52.608066,38.501362,-0.08184239791870787,True,house
111,111,8797.0,496.5,IPPODROMNAYA 15B          ELISTA      ,"Ипподромная улица, 15, Элиста, Республика Калмыкия, Россия, 358005",46.321623,44.233611,-0.07983827673128033,True,house
112,112,13.0,496.5,KOMMUNARSKIY 18           BIYSK       ,"Коммунарский переулок, 18, Бийск, Алтайский край, Россия, 659300",52.540672,85.22168,-0.05035007441799007,True,house
113,113,18.0,496.5,VERKHNAYA DUBROVA 26ZH    VLADIMIR    ,"улица Верхняя Дуброва, 26Ж, Владимир, Россия, 600022",56.109039,40.344112,-0.09047449122094946,True,house
114,114,23.0,496.5,SOVETSKAYA 7              TOSNO       ,"Советская улица, 7, Тосно, Тосненское городское поселение, Ленинградская область, Россия, 187000",59.542333,30.880522,-0.03724813854736477,True,house
115,115,24.0,496.5,PIONERSKAYA 10A           KHABAROVSK  ,"Пионерская улица, 10А, Хабаровск, Россия",48.458826,135.089668,0.009396823260080138,True,house
116,116,29.0,496.5,LENINA 32                 YUKHNOV     ,"улица Ленина, 32, Юхнов, Калужская область, Россия, 249910",54.74085400000001,35.225583,-0.05089843699161909,True,house
117,117,61.0,496.5,DZERZHINSKOGO 82/2        VELSK       ,"улица Дзержинского, 82, Вельск, Архангельская область, Россия, 165150",61.069724,42.112419,-0.06948519689808405,True,house
118,118,62.0,496.5,LENINA 2                  USMAN       ,"улица Ленина, 2, Усмань, Липецкая область, Россия",52.038882,39.73668,-0.05607726556749221,True,house
119,119,68.0,496.5,VOROSHILOVA 6/24          KRASNIY SULI,"улица Ворошилова, 6, Красный Сулин, Ростовская область, Россия",47.894769,40.057549,-0.06626410445612932,True,house
120,120,72.0,496.5,MIRA 11A                  LAKINSK     ,"улица Мира, 11А, Лакинск, Собинский район, Владимирская область, Россия, 601241",56.022348,39.979908,-0.06330300247529215,True,house
121,121,75.0,496.5,SOVETSKAYA 82             STARONIZHEST,"Советская улица, 82, станица Старонижестеблиевская, Красноармейский район, Краснодарский край, Россия",45.377812,38.438713,0.08910534933985331,True,house
122,122,76.0,496.5,PSKOVSKAYA 2              VOLOGDA     ,"Псковская улица, 2, Вологда, Россия, 160034",59.201007,39.829368,-0.08820784687667625,True,house
123,123,80.0,496.5,BRYANSKAYA 67A            TRUBCHEVSK  ,"Брянская улица, 67А, Трубчевск, Брянская область, Россия, 242220",52.58039100000001,33.766477,-0.11489727343702412,True,house
124,124,84.0,496.5,KRUPSKOY 15               ZAKAMENSK   ,"улица Крупской, 15, Закаменск, Республика Бурятия, Россия, 671950",50.375026,103.285462,0.010163564887207271,True,house
125,125,89.0,496.5,VOLODARSKOGO 1            TARUSA      ,"улица Володарского, 1, Таруса, Калужская область, Россия",54.727084,37.181081,-0.1333332450980473,True,house
126,126,93.0,496.5,ASTRAKHANSKAYA 189A       TAMBOV      ,"Астраханская улица, 189А, Тамбов, Россия, 392005",52.675552,41.465308,-0.0778446091413019,True,house
127,127,101.0,496.5,LENINGRADSKAYA 58         KHABAROVSK  ,"Ленинградская улица, 58, Хабаровск, Россия, 680021",48.496609,135.07277,-0.08953466824085697,True,house
128,128,106.0,496.5,LEKONTA 1/1               OMSK        ,"улица Леконта, 1к1, Омск, Россия, 644020",54.940753,73.386556,-0.14500123147475488,True,house
129,129,119.0,496.5,"IGNATIEVSKOE AVE,17       BLAGOVESHENS","Игнатьевское шоссе, городской округ Благовещенск, Амурская область, Россия",50.351708,127.460204,-0.030739618192407617,True,house
130,130,121.0,496.5,TAEZHNAYA 32              KAA-KHEM    ,"Таёжная улица, посёлок городского типа Каа-Хем, Кызылский кожуун, Республика Тыва, Россия",51.693519,94.559263,0.011338967382267232,True,street
131,131,126.0,496.5,KRASNOARMEYSKAYA 137      KIZIL       ,"Красноармейская улица, 137, Кызыл, Республика Тыва, Россия",51.716229,94.440685,0.03331461011246056,True,house
132,132,132.0,496.5,KOOPERATIVNAYA 59         CHEKMAGUSH  ,"Кооперативная улица, 59, село Чекмагуш, Чекмагушевский район, Республика Башкортостан, Россия, 452200",55.13810400000001,54.653744,-0.05199984917312545,True,house
133,133,139.0,496.5,BEREZOVIY 3A              SELENGINSK  ,"микрорайон Берёзовый, 3А, посёлок городского типа Селенгинск, Кабанский район, Республика Бурятия, Россия, 671247",52.00588,106.864125,0.054741890157150204,True,house
134,134,145.0,496.5,"POSHEKHONSKOE AVE,22      VOLOGDA     ","Пошехонское шоссе, 22, Вологда, Россия",59.197256,39.859246,-0.010273139439971707,True,house
135,135,2940.0,1022.0,ABB 1 DEKABRISTOV UL      KAZAN       ,"1-й переулок Декабристов, поселок Фрунзевец, Апрелевка, Наро-Фоминский городской округ, Московская область, Россия",55.52905300000001,37.026741,-0.10583718748257466,True,
136,136,4620.0,1022.0,ABB 24 KORABELNAYA        NIZHNEKAMSK ,"Корабельная улица, 24, Нижнекамск, Республика Татарстан, Россия, 423578",55.624388,51.7995,-0.08099983751451277,True,house
137,137,294.0,1022.0,ABB 53 A YULIUSA FUCHIKA  KAZAN       ,"улица Юлиуса Фучика, 53А, Казань, Республика Татарстан, Россия, 420141",55.74375500000001,49.203549,-0.12597963007001686,True,house
138,138,1978.0,1022.0,ABB 14 CHISTOPOLSKAYA     KAZAN       ,"Чистопольская улица, 14, Казань, Республика Татарстан, Россия, 420066",55.818574,49.108157,-0.07859949534907965,True,house
139,139,1991.0,1022.0,"ABB 11 PROLETARSKAYA      VYS.GORA,   ","Пролетарская улица, 11, посёлок городского типа Кесова Гора, Кесовогорский район, Тверская область, Россия, 171470",57.587228,37.296586,-0.08709143011786058,True,
140,140,4509.0,1022.0,ABB 97 RIKHARDA ZORGE     KAZAN       ,"улица Рихарда Зорге, 97, Казань, Республика Татарстан, Россия, 420139",55.744429,49.219772,-0.07706384345842962,True,house
141,141,4598.0,1022.0,ABB 141 POBEDY PR.        KAZAN       ,"проспект Победы, 141, Казань, Республика Татарстан, Россия, 420100",55.780957,49.213125,-0.06557084537563818,True,
142,142,4665.0,1022.0,ABB 32 LENINA             ZELENODOLSK ,"улица Ленина, 32, Зеленодольск, Республика Татарстан, Россия, 422550",55.846997,48.500033,-0.06655856143748902,True,house
143,143,4698.0,1022.0,ABB 113A LENINA           ALMETEVSK   ,"улица Ленина, 113А, Альметьевск, Республика Татарстан, Россия, 423461",54.898178,52.272481,-0.0748998023959967,True,house
144,144,153.0,1022.0,ABB 13 B. KHMELNICKOGO    CHELYABINSK ,"улица Богдана Хмельницкого, 13, Челябинск, Россия, 454047",55.25759100000001,61.395834,-0.14500123147475488,True,house
145,145,317.0,1022.0,ABB METRO ST.PL. TUKAYA   KAZAN       ,"метро Площадь Габдуллы Тукая, Центральная линия, Казань, Республика Татарстан, Россия",55.786065,49.124542,-0.08503765605085375,True,street
146,146,322.0,1022.0,ABB 45 KH. MAVLYUTOVA     KAZAN       ,"улица Хусаина Мавлютова, 45, Казань, Республика Татарстан, Россия, 420101",55.74461700000001,49.192832,-0.02753584856870541,True,house
147,147,323.0,1022.0,"ABB 71 KRAJNOVA           BAZ.MATAKI, ","улица Крайнова, 71, село Базарные Матаки, Алькеевский район, Республика Татарстан, Россия, 422870",54.904359,49.924034000000006,-0.06255262907926452,True,locality
148,148,329.0,1022.0,ABB 2 LUSHNIKOVA          KAZAN       ,"улица Лушникова, 2, Казань, Республика Татарстан, Россия, 420034",55.818796,49.082348,-0.11900714040733515,True,house
149,149,330.0,1022.0,ABB 34 ENTUZIASTOV        CHEBOKSARY  ,"улица Энтузиастов, 34, Чебоксары, Чувашская Республика, Россия, 428010",56.118791,47.183606,-0.10507849052517099,True,house
150,150,347.0,1022.0,ABB 6B NAB-CHELNINSKIJ    NAB.CHELNY  ,"Россия, Республика Татарстан, Набережные Челны, проспект Хасана Туфана, 12",55.740755,52.414622,-0.14500123147475488,True,house
151,151,354.0,1022.0,ABB 36A MAMADYSHSKIJ      KAZAN       ,"Мамадышский тракт, 36, Казань, Республика Татарстан, Россия",55.795317,49.229447,-0.10721077850870757,True,house
152,152,365.0,1022.0,ABB 50A POBEDY PR.        KAZAN       ,"проспект Победы, 50А, Казань, Республика Татарстан, Россия, 420138",55.748919,49.207573,-0.06991247967757852,True,
153,153,369.0,1022.0,ABB 77 ZORGE              KAZAN       ,"улица Рихарда Зорге, 77, Казань, Республика Татарстан, Россия, 420110",55.747627,49.214338,-0.07562818078365499,True,house
154,154,370.0,1022.0,ABB 65 SHAMILYA USMANOVA  NAB.CHELNY  ,"улица Шамиля Усманова, 65, Набережные Челны, Республика Татарстан, Россия, 423831",55.74926800000001,52.391697,-0.09851593172908016,True,house
155,155,372.0,1022.0,"ABB 168 B. KRASNAYA       VYS.GORA,   ","Большая Красная улица, 168, село Высокая Гора, Высокогорский район, Республика Татарстан, Россия, 422701",55.918933,49.312991,-0.030877482484119364,True,other
156,156,375.0,1022.0,ABB 32 LENINGRADSKAYA     KAZAN       ,"Ленинградская улица, 32, Казань, Республика Татарстан, Россия, 420037",55.86679300000001,49.088214,-0.08993537454537529,True,house
157,157,377.0,1022.0,ABB 113A LENINA           ALMETEVSK   ,"улица Ленина, 113А, Альметьевск, Республика Татарстан, Россия, 423461",54.898178,52.272481,-0.06552047960209881,True,house
158,158,1915.0,1022.0,ABB 32 LENINA             ZELENODOLSK ,"улица Ленина, 32, Зеленодольск, Республика Татарстан, Россия, 422550",55.846997,48.500033,-0.09361562708036664,True,house
159,159,1939.0,1022.0,ABB 34-12 SIBIRSKIJ TR.   KAZAN       ,"Сибирский тракт, 34к12, Казань, Республика Татарстан, Россия",55.816111,49.188412,-0.12191015749415587,True,district
160,160,1949.0,1022.0,ABB 1A KOROLEVA           ZELENODOLSK ,"улица Королёва, 1А, Зеленодольск, Республика Татарстан, Россия",55.852834,48.566814,-0.12400822868766162,True,house
161,161,1950.0,1022.0,ABB 5 GRUZDEVA            KAZAN       ,"улица Груздева, 5, Казань, Республика Татарстан, Россия, 420012",55.78903100000001,49.145015,0.04301167939058696,True,house
162,162,1951.0,1022.0,ABB 2-1 LUNACHARSKOGO     ULYANOVSK   ,"улица Луначарского, 2с1, Ульяновск, Россия, 432012",54.263287,48.329201,-0.14500123147475488,True,house
163,163,1957.0,1022.0,ABB 1-1 SHKOLNYJ B-R      NAB.CHELNY  ,"Школьная улица, 1, поселок ЗЯБ, Набережные Челны, Республика Татарстан, Россия, 423806",55.690928,52.346511,-0.13214370581277513,True,
164,164,255.0,1942.0,27 OPALIKHINSKAYA STR.    EKATERINBURG,"Опалихинская улица, 27, Екатеринбург, Свердловская область, Россия, 620034",56.85407900000001,60.559521,-0.06442458021801023,True,house
165,165,161.0,1942.0,84 M.RYBALKO STR.         PERM        ,"улица Маршала Рыбалко, 84, Пермь, Россия, 614113",58.008839,55.962213,-0.08276887475719676,True,house
166,166,169.0,1942.0,52 TOKAREY ST.            EKATERINBURG,"улица Токарей, 52, Екатеринбург, Свердловская область, Россия, 620109",56.829487,60.560563,-0.07525260297147814,True,house
167,167,170.0,1942.0,"ST FURMANOVA,37           EKATERINBURG","улица Фурманова, 37, Екатеринбург, Свердловская область, Россия, 620142",56.815646,60.611812,-0.048793541589588776,True,house
168,168,247.0,1942.0,12A BELORECHENSKAYA       EKATERINBURG,"Белореченская улица, 12А, микрорайон Юго-Западный, Екатеринбург, Свердловская область, Россия, 620102",56.821026,60.567911,0.021693379913978208,True,house
169,169,253.0,1942.0,136 BEBELYA STR.          EKATERINBURG,"улица Бебеля, 136, Екатеринбург, Свердловская область, Россия, 620141",56.86075699999999,60.552325,0.026573003665279392,True,house
170,170,279.0,1942.0,60 KOMSOMOLSKIY AV.       PERM        ,"Комсомольская улица, 58, Пермь, Россия",58.059226,56.61399399999999,0.028880191409929232,True,house
171,171,283.0,1942.0,44A AVTOZAVODSKAYA STR.   PERM        ,"Автозаводская улица, 44А, Пермь, Россия, 614113",58.006688,55.94933100000001,-0.006875071534618654,True,house
172,172,284.0,1942.0,44A AVTOZAVODSKAYA STR.   PERM        ,"Автозаводская улица, 44А, Пермь, Россия, 614113",58.006688,55.94933100000001,0.0300461246138357,True,house
173,173,293.0,1942.0,172 KARLA MARKSA AV.      MAGNITOGORSK,"проспект Карла Маркса, 172, Магнитогорск, Челябинская область, Россия, 455049",53.37844000000001,58.976384,0.02358745386198309,True,locality
174,174,196.0,1942.0,166 TRUDA STR.            CHELYABINSK ,"улица Труда, 166, Челябинск, Россия, 454080",55.170784,61.374562,0.009251294847123271,True,house
175,175,200.0,1942.0,86 VEDENEEVA STR.         PERM        ,"улица Академика Веденеева, 86, Пермь, Россия, 614038",58.103704,56.385436,-0.014296121068138769,True,house
176,176,204.0,1942.0,13 REVOLYUTSII STR        PERM        ,"улица Революции, 13, Пермь, Россия",58.007599,56.261908,0.03684681294472016,True,house
177,177,211.0,1942.0,2A KIROVA STR.            CHELYABINSK ,"улица Кирова, 2А, Челябинск, Россия, 454084",55.18378000000001,61.398107,-0.00827596763768026,True,house
178,178,212.0,1942.0,38 IVANA FRANKO STR       PERM        ,"улица Ивана Франко, 38, Пермь, Россия, 614056",58.063254,56.354489,0.0051556292855728,True,house
179,179,213.0,1942.0,15 ZHUKOVA STR.           MAGNITOGORSK,"улица Жукова, 15, Магнитогорск, Челябинская область, Россия, 455051",53.35599200000001,58.970625,-0.054859815489407916,True,house
180,180,217.0,1942.0,7 MOLODOGVARDEYTSEV       CHELYABINSK ,"улица Молодогвардейцев, 7, Челябинск, Россия, 454901",55.204793,61.327311,-0.0053415141242836,True,house
181,181,1005.0,1942.0,7B PERMYAKOVA STR.        TUMEN       ,"улица Пермякова, 7Б, Тюмень, Россия, 625013",57.13031,65.595566,-0.025136162491498408,True,house
182,182,1591.0,1942.0,16A BEREJKOVSK NAB        MOSCOW      ,"Россия, Москва",55.755814,37.617635,0.0800340870031678,True,locality
183,183,1839.0,1942.0,2 NOVOBAYDAEVSKAYA        NOVOKUZNETSK,"Новобайдаевская улица, 2, микрорайон Новобайдаевский, Новокузнецк, Кемеровская область, Россия, 654084",53.78207,87.293635,-0.01279618485467263,True,house
184,184,1872.0,1942.0,35 SHIROKAYA STR.         NOVOSIBIRSK ,"Широкая улица, 35, Новосибирск, Россия, 630108",54.993153,82.854233,-0.060975800356932536,True,house
185,185,1901.0,1942.0,41-7 CHERNOY RECHKI       S.-PETERSBUR,"набережная Чёрной речки, 41к2А, Санкт-Петербург, Россия, 197342",59.985683,30.306984000000003,0.01643941203192391,True,house
186,186,390.0,1942.0,11 KATUKOVA STR.          LIPETSK     ,"улица Катукова, 11, Липецк, Россия, 398004",52.580418,39.527436,0.07000397024664216,True,house
187,187,411.0,1942.0,10 BABUSHKINA STR.        SANKT-PETERB,"улица Бабушкина, 10, Санкт-Петербург, Россия, 192029",59.89672,30.42345,0.02618506622166761,True,house
188,188,427.0,1942.0,2-6 22-Y MKRN.            NAZAROVO    ,"22-й микрорайон, 2, Назарово, Красноярский край, Россия",56.001791,90.451716,-0.07303491034956516,True,house
189,189,431.0,1942.0,3 VZLETNAYA STR.          KRASNOYARSK ,"автодорога Красноярск-Железногорск, 20 км, Берёзовский район, Красноярский край, Россия",56.12978,93.332317,-0.11016056794423673,True,house
190,190,434.0,1942.0,55B KRASNAYA STR.         NOVOVELICHKO,"Красная улица, 55Б, станица Нововеличковская, Динской район, Краснодарский край, Россия",45.275511,38.839919,0.061875366207584326,True,house
191,191,438.0,1942.0,103/2 KUBOVAYA STR.       NOVOSIBIRSK ,"Кубовая улица, 103/2, Новосибирск, Россия, 630066",55.128748,82.898601,0.0007007466601096274,True,house
192,192,440.0,1942.0,113 MIRA AV.              TOGLIATTI   ,"Россия, Самарская область, Тольятти",53.508816,49.419207,-0.08295616452805786,True,locality
193,193,442.0,1942.0,30A MOSKOVSKIY AV.        TOGLIATTI   ,"Московский проспект, 30, Тольятти, Самарская область, Россия, 445026",53.52359300000001,49.256711,-0.0005299449037010677,True,locality
194,194,448.0,1942.0,43 DUBROVINSKOGO ST       KRASNOYARSK ,"улица Дубровинского, 43, Красноярск, Россия, 660049",56.006618,92.857081,-0.13404772020703254,True,house
195,195,454.0,1942.0,1 BELYAEVA STR.           ORSK        ,"улица Беляева, 1, микрорайон Новый город, Орск, Оренбургская область, Россия, 462430",51.258168,58.432355,-0.08855924432536848,True,house
196,196,456.0,1942.0,93 LENINA AV.             ORSK        ,"проспект Ленина, 93, микрорайон Новый город, Орск, Оренбургская область, Россия, 462429",51.250519,58.45263900000001,-0.10638596185214794,True,locality
197,197,463.0,1942.0,525 KRASNIKH PARTIZ       KRASNODAR   ,"улица Красных Партизан, 525литД, Краснодар, Россия, 350049",45.049819,38.967498,0.023409787521327767,True,house
198,198,466.0,1942.0,3A GEN.SHTEMENKO          VOLGOGRAD   ,"улица Генерала Штеменко, 3А, Волгоград, Россия, 400105",48.771273,44.564092,-0.006850589105688349,True,house
199,199,469.0,1942.0,24 50-LET OKTYABRYA       UFA         ,"улица 50-летия Октября, 24, Уфа, Республика Башкортостан, Россия, 450005",54.737283,55.976666,-0.036416262446369016,True,house
200,200,470.0,1942.0,8V MILITSEYSKAYA STR      U.-SAKHALINS,"Милицейская улица, 8, Южно-Сахалинск, Сахалинская область, Россия",46.966405,142.73181499999995,0.041914455958882525,True,house
201,201,472.0,1942.0,25. KUIBYSHEVA STR.       CHAPAEVSK   ,"улица Куйбышева, 25, Чапаевск, Самарская область, Россия, 446100",52.978797,49.707926,-0.04619992458876603,True,house
202,202,476.0,1942.0,138 MICHURINA STR         SAMARA      ,"улица Мичурина, 138, Самара, Россия, 443086",53.217014,50.167594,0.024260703292680614,True,house
203,203,489.0,1942.0,46/1 VYSOTSKOGO STR       NOVOSIBIRSK ,"улица Владимира Высоцкого, 46, Новосибирск, Россия",55.02780500000001,83.02403199999998,-0.05554805341364954,True,house
204,204,496.0,1942.0,OTKRITOE SHOSSE 9         MOSCOW      ,"Открытое шоссе, 9, Москва, Россия, 107370",55.815413,37.738045,0.05303053219394768,True,house
205,205,501.0,1942.0,21B LENINA AV.            YAROSLAVL   ,"проспект Ленина, 21, Ярославль, Россия, 150003",57.63786800000001,39.871517,-0.021484700352336832,True,house
206,206,505.0,1942.0,89 MELNIKAYTE STR         TYUMEN      ,"улица Мельникайте, 89, Тюмень, Россия, 625026",57.139532,65.57574,-0.1342043465078909,True,house
207,207,507.0,1942.0,32 NOVOKOSINSKAYA         MOSCOW      ,"Новокосинская улица, 32/7, Москва, Россия, 111672",55.742007,37.867169,0.05054958166973895,True,house
208,208,510.0,1942.0,20 SHEREMETEVSKAYA        MOSCOW      ,"Шереметьевская улица, 20, Москва, Россия, 129594",55.80346899999999,37.618848,-0.06652861299218105,True,house
209,209,522.0,1942.0,2 VETERANOV BLVD.         MYTISCHI    ,"бульвар Ветеранов, с2, Мытищи, Московская область, Россия, 141021",55.909226,37.720043,0.05958516785891312,True,house
210,210,533.0,1942.0,10/1 SHABOLOVSKAYA STR    MOSCOW      ,"улица Шаболовка, 10к1, Москва, Россия, 119049",55.723861,37.610053,0.04871931418679338,True,house
211,211,537.0,1942.0,10 VOZDVIZHENKA STR       MOSCOW      ,"улица Воздвиженка, 10, Москва, Россия, 125009",55.753301,37.606263,-0.018360119237916517,True,house
212,212,544.0,1942.0,24/19 LUZHNIKI            MOSCOW      ,"улица Лужники, 24с19, Москва, Россия, 119270",55.71253299999999,37.553226,-0.10396077534759847,True,house
213,213,553.0,1942.0,80 ALTUFEVSKOE H/W.       MOSCOW      ,"Каширское шоссе, 80, Москва, Россия, 115569",55.624505000000006,37.709093,0.04084044056119073,True,locality
214,214,556.0,1942.0,133A MOZHAYSKOE H/W.      MOSCOW      ,"Россия, Москва, Можайское шоссе",55.718348999999996,37.415083,0.0615173036596214,True,street
215,215,562.0,1942.0,13A SHIROKAYA STR         MOSCOW      ,"Широкая улица, 13А, Москва, Россия, 127224",55.88810400000001,37.662452,0.003338239486750856,True,house
216,216,568.0,1942.0,63A IZMAYLOVSKIY AV.      MOSCOW      ,"Россия, Москва, Измайловская улица",55.78379200000001,37.716315,0.008275996403292884,True,street
217,217,577.0,1942.0,19 YARTSEVSKAYA STR.      MOSCOW      ,"Ярцевская улица, 19, Москва, Россия, 121552",55.73859100000001,37.411005,0.1157061201776452,True,house
218,218,587.0,1942.0,14/2 BUMAZHNIY AVE        MOSCOW      ,"Россия, Москва, Бумажная просека, 21с1",55.86268100000001,37.729161,-0.0522203549815792,True,house
219,219,589.0,1942.0,18-1 ANDROPOVA STR.       MOSCOW      ,"проспект Андропова, 18к1, Москва, Россия, 115432",55.695027,37.662812,-0.0961968395008744,True,house
220,220,594.0,1942.0,48 LENINA AV.             NOVOROSSIYSK,"проспект Ленина, 48, Новороссийск, Краснодарский край, Россия, 353913",44.692073,37.789187,0.009167381507292748,True,house
221,221,603.0,1942.0,91/2 MIRA AVE.            MOSCOW      ,"проспект Мира, 91к2, Москва, Россия, 129085",55.80611500000001,37.635431,0.025721514835642324,True,house
222,222,604.0,1942.0,91/2 MIRA AVE.            MOSCOW      ,"проспект Мира, 91к2, Москва, Россия, 129085",55.80611500000001,37.635431,0.044165968739876806,True,house
223,223,605.0,1942.0,91/2 MIRA AVE.            MOSCOW      ,"проспект Мира, 91к2, Москва, Россия, 129085",55.80611500000001,37.635431,0.0651079869197264,True,house
224,224,606.0,1942.0,91/2 MIRA AVE.            MOSCOW      ,"проспект Мира, 91к2, Москва, Россия, 129085",55.80611500000001,37.635431,0.044449064042238834,True,house
225,225,651.0,1942.0,24/1 KOMSOMOLSKIY AVE     MOSCOW      ,"Комсомольская площадь, 32/40, Москва, Россия, 107140",55.78278,37.650253,0.06301186695572203,True,house
226,226,652.0,1942.0,24/1 KOMSOMOLSKIY AVE     MOSCOW      ,"Комсомольская площадь, 32/40, Москва, Россия, 107140",55.78278,37.650253,0.08369315391332988,True,house
227,227,653.0,1942.0,24/1 KOMSOMOLSKIY AVE     MOSCOW      ,"Комсомольская площадь, 32/40, Москва, Россия, 107140",55.78278,37.650253,0.05251988108965897,True,house
228,228,677.0,1942.0,33-1 PR. KOSMONAVTOV      KOROLEV     ,"проспект Космонавтов, 33к1, Королёв, Московская область, Россия, 141077",55.910644,37.867708,0.07682170942653563,True,house
229,229,678.0,1942.0,33-1 PR. KOSMONAVTOV      KOROLEV     ,"проспект Космонавтов, 33к1, Королёв, Московская область, Россия, 141077",55.910644,37.867708,0.0871159510050686,True,house
230,230,679.0,1942.0,33-1 PR. KOSMONAVTOV      KOROLEV     ,"проспект Космонавтов, 33к1, Королёв, Московская область, Россия, 141077",55.910644,37.867708,0.05524369475944075,True,house
231,231,700.0,1942.0,2 BOLSHAYA TULSKAYA ST.   MOSCOW      ,"Большая Тульская улица, 2, Москва, Россия, 115191",55.709028,37.620761,0.036484776474882685,True,house
232,232,705.0,1942.0,45 YANA RAYNISA ST.       MOSCOW      ,"Россия, Москва",55.755814,37.617635,0.09772627473616588,True,locality
233,233,706.0,1942.0,45 YANA RAYNISA ST.       MOSCOW      ,"Россия, Москва",55.755814,37.617635,0.06734199983579324,True,locality
234,234,707.0,1942.0,45 YANA RAYNISA ST.       MOSCOW      ,"Россия, Москва",55.755814,37.617635,0.1622313862404432,True,locality
235,235,708.0,1942.0,45 YANA RAYNISA ST.       MOSCOW      ,"Россия, Москва",55.755814,37.617635,0.1281522422059661,True,locality
236,236,719.0,1942.0,15 PROFSOYUZNAYA ST.      MOSCOW      ,"Профсоюзная улица, 15, Москва, Россия, 117218",55.679138,37.565317,0.07373194186721405,True,house
237,237,720.0,1942.0,15 PROFSOYUZNAYA ST.      MOSCOW      ,"Профсоюзная улица, 15, Москва, Россия, 117218",55.679138,37.565317,0.08651358224155463,True,house
238,238,725.0,1942.0,15 PROFSOYUZNAYA ST.      MOSCOW      ,"Профсоюзная улица, 15, Москва, Россия, 117218",55.679138,37.565317,0.07240660882460555,True,house
239,239,728.0,1942.0,15 PROFSOYUZNAYA ST.      MOSCOW      ,"Профсоюзная улица, 15, Москва, Россия, 117218",55.679138,37.565317,0.07325867479736532,True,house
240,240,780.0,1942.0,119 VERNADSKOGO AV.       MOSCOW      ,"проспект Вернадского, 119, Москва, Россия, 119571",55.657621,37.482771,0.03653681920132017,True,house
241,241,913.0,1942.0,104 PROFSOYUZNAYA ST.     MOSKVA      ,"Профсоюзная улица, 104, Москва, Россия, 117437",55.64191999999999,37.523456,0.04470233857014213,True,house
242,242,915.0,1942.0,104 PROFSOYUZNAYA ST.     MOSKVA      ,"Профсоюзная улица, 104, Москва, Россия, 117437",55.64191999999999,37.523456,0.051185226116745496,True,house
243,243,924.0,1942.0,1 NOVINKI ST.             MOSKVA      ,"улица Новинки, 1, Москва, Россия, 115470",55.677671,37.666225,-0.0003928241126800797,True,house
244,244,926.0,1942.0,1 NOVINKI ST.             MOSKVA      ,"улица Новинки, 1, Москва, Россия, 115470",55.677671,37.666225,0.027479770990444533,True,house
245,245,929.0,1942.0,1 NOVINKI ST.             MOSKVA      ,"улица Новинки, 1, Москва, Россия, 115470",55.677671,37.666225,0.08096014043716365,True,house
246,246,930.0,1942.0,1 NOVINKI ST.             MOSKVA      ,"улица Новинки, 1, Москва, Россия, 115470",55.677671,37.666225,0.0629492558477282,True,house
247,247,948.0,1942.0,56/2 PERERVA STR.         MOSCOW      ,"улица Перерва, 56/2, Москва, Россия, 109341",55.657845,37.747729,0.006865772365852916,True,house
248,248,949.0,1942.0,56/2 PERERVA STR.         MOSCOW      ,"улица Перерва, 56/2, Москва, Россия, 109341",55.657845,37.747729,-0.03028979747072208,True,house
249,249,977.0,1942.0,4-1 22-KM/ KIEVSKOE H/W.  MOSCOW      ,"срезка на 5 км, территория Спортивный клуб Ромашково, Москва, Россия",55.749988,37.363538,0.06058329601589104,True,railway
250,250,1075.0,1942.0,18 AVTOZAVODSKAYA STR.    MOSCOW      ,"Автозаводская улица, 18, Москва, Россия, 115280",55.705452,37.637749,0.06503827318056538,True,house
251,251,1162.0,1942.0,56/2 PERERVA STR.         MOSCOW      ,"улица Перерва, 56/2, Москва, Россия, 109341",55.657845,37.747729,-0.02541897583462377,True,house
252,252,1443.0,1942.0,8 NOVATOROV BLVD.         S.-PETERBURG,"бульвар Новаторов, 8, Санкт-Петербург, Россия, 198216",59.850595,30.26938,-0.004959832826328442,True,house
253,253,1472.0,1942.0,6 POLYARNIKOV STR.        S.-PETERBURG,"улица Полярников, 6, Санкт-Петербург, Россия, 192171",59.876549,30.43785,-0.05363009651606472,True,house
254,254,1677.0,1942.0,8 NOVATOROV BLVD.         S.-PETERBURG,"бульвар Новаторов, 8, Санкт-Петербург, Россия, 198216",59.850595,30.26938,0.006593374273523836,True,house
255,255,1680.0,1942.0,8 NOVATOROV STR.          S.-PETERBURG,"Россия, Санкт-Петербург",59.939094999999995,30.315868,-0.010433125117104845,True,locality
256,256,1681.0,1942.0,85 40-LET POBEDY AVE      ROSTOV-NA-DO,"проспект 40-летия Победы, 85, Ростов-на-Дону, Россия, 344111",47.239101,39.82728400000001,-0.012380200705961077,True,house
257,257,1704.0,1942.0,23A PERMYAKOVA STR.       TYUMEN      ,"улица Пермякова, 23, Тюмень, Россия, 625051",57.11822700000001,65.57982700000001,-0.060015876467128415,True,house
258,258,1705.0,1942.0,23A PERMYAKOVA STR.       TYUMEN      ,"улица Пермякова, 23, Тюмень, Россия, 625051",57.11822700000001,65.57982700000001,-0.030632165082482427,True,house
259,259,1709.0,1942.0,49 GAGARINA               SAMARA      ,"улица Гагарина, 49, Самара, Россия, 443079",53.199924,50.177017,0.0571243591442085,True,house
260,260,1710.0,1942.0,49 GAGARINA               SAMARA      ,"улица Гагарина, 49, Самара, Россия, 443079",53.199924,50.177017,0.07733785262933969,True,house
261,261,1712.0,1942.0,199 G.IM.KRASNOYARSKIY RA KRASNOYARSK ,"Россия, Красноярск",56.010563,92.852572,0.048499918774498114,True,locality
262,262,1734.0,1942.0,32 SOVETSKIY AV.          KEMEROVO    ,"Советский проспект, 32, Кемерово, Россия, 650991",55.3581,86.075412,0.004913183131201501,True,street
263,263,1735.0,1942.0,32 SOVETSKIY AV.          KEMEROVO    ,"Советский проспект, 32, Кемерово, Россия, 650991",55.3581,86.075412,0.020173217770813358,True,street
264,264,1736.0,1942.0,32 SOVETSKIY AV.          KEMEROVO    ,"Советский проспект, 32, Кемерово, Россия, 650991",55.3581,86.075412,0.011827645576843257,True,street
265,265,1745.0,1942.0,56 MIRA AVE               OMSK        ,"проспект Мира, 56, Омск, Россия, 644029",55.02971899999999,73.27894599999998,0.04858816307399647,True,locality
266,266,1746.0,1942.0,90/1 LENINA AV.           KEMEROVO    ,"проспект Ленина, 90/1, Кемерово, Россия, 650066",55.345585,86.127748,0.06945395768042391,True,house
267,267,1762.0,1942.0,55 KIROVA                 NOVOKUZNETSK,"улица Кирова, 55, Новокузнецк, Кемеровская область, Россия, 654080",53.758889,87.138164,-0.013694054180142036,True,house
268,268,1771.0,1942.0,124B KRASNAYA STR         KRASNODAR   ,"Красная улица, 124, микрорайон Центральный, Краснодар, Россия",45.036076,38.975807,0.04905783980328098,True,house
269,269,1774.0,1942.0,124B KRASNAYA STR         KRASNODAR   ,"Красная улица, 124, микрорайон Центральный, Краснодар, Россия",45.036076,38.975807,0.03550886759489725,True,house
270,270,1791.0,1942.0,32A GAKKELEVSKAYA STR.    SANTK-PETERB,"Гаккелевская улица, 32, Санкт-Петербург, Россия, 197372",60.006395,30.256984000000006,0.011371561198269788,True,house
271,271,1824.0,1942.0,46 B.SADOVAYA STR.        ROSTOV-ON-DO,"Большая Садовая улица, 46/30, Ростов-на-Дону, Россия, 344002",47.219967,39.708302,-0.057828077980383814,True,house
272,272,1843.0,1942.0,66 SOVETSKAYA             LIPETSK     ,"Советская улица, 66, Липецк, Россия, 398001",52.605818000000006,39.57793,-0.048194552427837344,True,house
273,273,1862.0,1942.0,12 7-MIKRORAYON           RADUZHNIY   ,"микрорайон Радужный, 7, посёлок Рыбхоз, Богородский городской округ, Московская область, Россия",55.788834,38.133412,-0.0494611022595088,True,house
274,274,1866.0,1942.0,49A YAROSLAVSKIY AV.      YAROSLAVL   ,"Ярославская улица, 53, Ярославль, Россия, 150006",57.57269300000001,39.920053,-0.03389683972273758,True,house
275,275,1873.0,1942.0,53 40-LET KOMSOMOLA       NOVOSIBIRSK ,"улица 40 лет Комсомола, 53, Новосибирск, Россия, 630098",54.864544,82.981308,0.006237113223918536,True,house
276,276,1889.0,1942.0,66 LENINA STR.            DZERZHINSK  ,"проспект Ленина, 66, Дзержинск, Нижегородская область, Россия, 606010",56.236986,43.46282,-0.04067358299716933,True,house
277,277,722.0,1942.0,171 LYUBLINSKAYA ST       MOSCOW      ,"Люблинская улица, 171, Москва, Россия, 109652",55.646914,37.746912,0.012160971473561072,True,house
278,278,723.0,1942.0,171 LYUBLINSKAYA ST       MOSCOW      ,"Люблинская улица, 171, Москва, Россия, 109652",55.646914,37.746912,0.017663058692593415,True,house
279,279,724.0,1942.0,171 LYUBLINSKAYA ST       MOSCOW      ,"Люблинская улица, 171, Москва, Россия, 109652",55.646914,37.746912,0.01633845488491965,True,house
280,280,726.0,1942.0,171 LYUBLINSKAYA ST       MOSCOW      ,"Люблинская улица, 171, Москва, Россия, 109652",55.646914,37.746912,0.0185873240090233,True,house
281,281,740.0,1942.0,79 KOMSOMOLSKIY AV.       TOMSK       ,"Комсомольский проспект, 79, Томск, Россия, 634041",56.467484,84.980455,-0.020161691990498616,True,locality
282,282,751.0,1942.0,158A TIKHOOKEANSKAYA      KHABAROVSK  ,"Тихоокеанская улица, 158А, Хабаровск, Россия",48.535599,135.051247,-0.037077781163590506,True,house
283,283,752.0,1942.0,36 GORKOGO STR.           SARATOV     ,"улица имени А.М. Горького, 36, Саратов, Россия",51.532167,46.03087,0.03326679730843367,True,locality
284,284,753.0,1942.0,36 GORKOGO STR.           SARATOV     ,"улица имени А.М. Горького, 36, Саратов, Россия",51.532167,46.03087,-0.0027794785668605825,True,locality
285,285,771.0,1942.0,101 POBEDY STR.           SAMARA      ,"улица Победы, 101, Самара, Россия, 443009",53.216254000000006,50.25694,0.01209296452077063,True,house
286,286,800.0,1942.0,42 LENINA                 BERDSK      ,"улица Ленина, 42, Бердск, Новосибирская область, Россия, 633010",54.761233,83.100605,-0.033242673616867814,True,house
287,287,812.0,1942.0,15 KVARTAL 212            ANGARSK     ,"258-й квартал, 212, Ангарск, Иркутская область, Россия",52.510652,103.886614,0.005069170884739559,True,house
288,288,825.0,1942.0,5-30 28-KVARTAL           ACHINSK     ,"28-й квартал, 5/4, Ачинск, Красноярский край, Россия",56.253202,90.474174,-0.0700862110141553,True,house
289,289,826.0,1942.0,5-30 28-KVARTAL           ACHINSK     ,"28-й квартал, 5/4, Ачинск, Красноярский край, Россия",56.253202,90.474174,-0.020708866784902108,True,house
290,290,840.0,1942.0,4 PL.POBEDY               KALININGRAD ,"площадь Победы, 4, Калининград, Россия",54.72086,20.499734,-0.04041389259279237,True,house
291,291,859.0,1942.0,20 KRASNIKH PARTIZAN      USOLIE-SIBIR,"проспект Красных Партизан, 20, Усолье-Сибирское, Иркутская область, Россия, 665460",52.733119,103.657948,0.03869509034139282,True,house
292,292,879.0,1942.0,29 LENINA AV.             NIZHNIY NOVG,"проспект Ленина, 29, Нижний Новгород, Россия, 603140",56.289106,43.930052,0.04047562949031334,True,house
293,293,880.0,1942.0,29 LENINA AV.             NIZHNIY NOVG,"проспект Ленина, 29, Нижний Новгород, Россия, 603140",56.289106,43.930052,0.010361316832015036,True,house
294,294,890.0,1942.0,13 IOSIFA KOROLINSKOGO    SURGUT      ,"улица Иосифа Каролинского, 13, Сургут, Ханты-Мансийский автономный округ, Россия, 628406",61.254571,73.447084,0.01586764670603277,True,house
295,295,892.0,1942.0,71-1 MOZHAYSKOGO STR      TVER        ,"улица Можайского, 71к1, Тверь, Россия, 170030",56.82038000000001,35.902006,-0.012881614000425076,True,house
296,296,895.0,1942.0,4 BERINGA STR.            MURMANSK    ,"улица Беринга, 4, Мурманск, Россия, 183014",68.915297,33.095507,-0.027402506307802738,True,house
297,297,897.0,1942.0,79 KUIBYSHEVA STR.        OMSK        ,"улица Куйбышева, 79, Омск, Россия, 644001",54.976535,73.399213,0.0767644071587546,True,house
298,298,898.0,1942.0,79 KUIBYSHEVA STR.        OMSK        ,"улица Куйбышева, 79, Омск, Россия, 644001",54.976535,73.399213,0.06339654954711334,True,house
299,299,905.0,1942.0,51 BUDENNOVSKIY           ROSTOV-ON-DO,"Буденновский лес, Красногвардейский район, Белгородская область, Россия",50.694253,38.324502,0.023142910818709655,True,vegetation
300,300,906.0,1942.0,51 BUDENNOVSKIY           ROSTOV-ON-DO,"Буденновский лес, Красногвардейский район, Белгородская область, Россия",50.694253,38.324502,0.05177351623209555,True,vegetation
301,301,981.0,1942.0,13/16-1 B.POLYANKA        MOSCOW      ,"улица Малая Полянка, 13, Москва, Россия, 119180",55.733624,37.616827,-0.016109496669004637,True,house
302,302,1032.0,1942.0,70 LET VLKSM 16/1         ORENBURG    ,"микрорайон 70-летия ВЛКСМ, 16/1, Оренбург, Россия",51.826733,55.142805,-0.03683053950816742,True,street
303,303,1038.0,1942.0,62 METALLURGOV STR.       TULA        ,"улица Металлургов, 62, Тула, Россия, 300027",54.191357,37.689653,-0.03924078351854871,True,house
304,304,1041.0,1942.0,65/4 LENINA STR.          UFA         ,"улица Ленина, 65/4, Уфа, Республика Башкортостан, Россия, 450006",54.738359,55.95284300000001,-0.05463467846611848,True,house
305,305,1074.0,1942.0,4B I.YAKOVLEVA AVE        CHEBOKSARY  ,"проспект Ивана Яковлева, 4, Чебоксары, Чувашская Республика, Россия",56.10320600000001,47.26432,0.001273953121459421,True,house
306,306,1088.0,1942.0,14A VERNADSKOGO AVE       MOSCOW      ,"проспект Вернадского, 14А, Москва, Россия, 119454",55.677737,37.506882,0.051609145114746235,True,house
307,307,1117.0,1942.0,5D CHAADAEVA STR.         N.NOVGOROD  ,"улица Чаадаева, 5, Нижний Новгород, Россия, 603035",56.32927700000001,43.854288,-0.05868189799854055,True,house
308,308,1140.0,1942.0,19 BEREZOVSKOGO           OMSK        ,"улица Березовского, 19, Омск, Россия, 644070",54.988526,73.383088,-0.008441139884245006,True,house
309,309,1158.0,1942.0,187V RODIONOVA STR.       N.NOVGOROD  ,"улица Родионова, 187, Нижний Новгород, Россия, 603093",56.30763100000001,44.073908,-0.02962858568284793,True,house
310,310,1169.0,1942.0,22 LENINGRADSKAYA S       KAZAN       ,"Ленинградская улица, 22, Казань, Республика Татарстан, Россия, 420127",55.861757,49.085591,-0.10589180542757114,True,house
311,311,1175.0,1942.0,142 N-DANCHENKO STR       NOVOSIBIRSK ,"улица Немировича-Данченко, 142, Новосибирск, Россия, 630087",54.988391,82.91475200000002,-0.06291050164279338,True,house
312,312,1183.0,1942.0,1B 2-YA CENTRALNAYA       UZHNO-SAKHAL,"2-я Центральная улица, 1Б, Южно-Сахалинск, Сахалинская область, Россия, 693017",46.900367,142.742227,0.06598975968419007,True,house
313,313,1212.0,1942.0,62 ZELENIY AVE            MOSCOW      ,"Зелёная улица, территория Мытищи-16, Мытищи, Московская область, Россия",55.945322,37.662892,0.07376376478649366,True,street
314,314,1219.0,1942.0,44 KRASNOARMEYSKAYA       TOMSK       ,"Красноармейская улица, 44, Томск, Россия, 634061",56.47551899999999,84.966945,-0.0301619876737986,True,house
315,315,1228.0,1942.0,9 KIROVA STR              OMSK        ,"улица Кирова, 9, Омск, Россия, 644041",54.947951,73.41969399999998,-0.019419024978892908,True,house
316,316,1245.0,1942.0,122 LENINA AV.            TULA        ,"проспект Ленина, 122, Тула, Россия, 300026",54.152641,37.58349000000001,0.012869733512498486,True,locality
317,317,1250.0,1942.0,1 STROENIE                KRASNIY BOR ,"посёлок Красный Бор, 1, Ярославский район, Ярославская область, Россия",57.640036,39.975848,0.012696248149679344,True,locality
318,318,1256.0,1942.0,5A LENINA SQ.             KSTOVO      ,"площадь Ленина, 5А, Кстово, Нижегородская область, Россия, 607657",56.150499,44.211296,0.007009776152434488,True,house
319,319,1266.0,1942.0,76/1 VERSHININA STR       TOMSK       ,"улица Вершинина, 76/2, Томск, Россия, 634045",56.45115,84.965651,-0.10996322702685796,True,house
320,320,1275.0,1942.0,60 GEN.LIZYUKOVA ST       VORONEZH    ,"улица Генерала Лизюкова, 60, Воронеж, Россия, 394088",51.70613400000001,39.14930800000001,0.030305267219534218,True,house
321,321,1287.0,1942.0,210/1 B.BOGATKOVA         NOVOSIBIRSK ,"улица Бориса Богаткова, 210/1, Новосибирск, Россия, 630089",55.036597,82.977562,0.0064482128473013975,True,house
322,322,1297.0,1942.0,37 MATE ZALKI STR.        KRASNOYARSK ,"улица Мате Залки, 37, микрорайон Северный, Советский район, Красноярск, Россия, 660127",56.061278,92.936627,0.053165578034432635,True,house
323,323,1306.0,1942.0,40/2 TUKHACHEVSKOGO       KEMEROVO    ,"улица Тухачевского, 40/2, Кемерово, Россия, 650070",55.32654300000001,86.134359,-0.09779370204548543,True,house
324,324,1307.0,1942.0,107 UNIVERSITETSKIY       VOLGOGRAD   ,"Россия, Волгоград, Университетская улица",48.772965,44.488615,0.04447850712108493,True,street
325,325,1330.0,1942.0,1A N.ERSHOVA STR.         KAZAN       ,"улица Николая Ершова, 1А, Казань, Республика Татарстан, Россия, 420061",55.7939,49.149506,-0.0738850659966635,True,house
326,326,1337.0,1942.0,19B MICHURINA             SAMARA      ,"улица Мичурина, 19В, Самара, Россия, 443013",53.203424,50.14042,0.08459402188457628,True,house
327,327,1338.0,1942.0,28 STROITELEY BLVD        KEMEROVO    ,"Россия, Кемерово",55.35496800000001,86.087314,0.03326553848376925,True,locality
328,328,1345.0,1942.0,12 LEN.KOMSOMOLA AV       ULYANOVSK   ,"проспект Ленинского Комсомола, 12, Ульяновск, Россия, 432072",54.381413,48.594356,-0.016064033369931858,True,house
329,329,1346.0,1942.0,221 B.BOGATKOVA STR       NOVOSIBIRSK ,"улица Бориса Богаткова, 221, Новосибирск, Россия, 630089",55.037252,82.976251,-0.08720581792517293,True,house
330,330,1353.0,1942.0,19B MICHURINA             SAMARA      ,"улица Мичурина, 19В, Самара, Россия, 443013",53.203424,50.14042,0.09653791942470766,True,house
331,331,1357.0,1942.0,219B A.PETROVA STR        BARNAUL     ,"улица Антона Петрова, 219, Барнаул, Алтайский край, Россия",53.358728,83.70182,-0.03819271531167322,True,house
332,332,1371.0,1942.0,61/1 GERTSENA STR         TOMSK       ,"улица Герцена, 61/1, Томск, Россия, 634021",56.472386,84.986384,-0.0222430197394242,True,house
333,333,1373.0,1942.0,5 PRIVOKZALNAYA SQ        GOLITSYNO   ,"Привокзальная площадь, 5, Голицыно, Одинцовский район, Московская область, Россия, 143040",55.616249,36.98832,0.005172903754851539,True,house
334,334,1380.0,1942.0,38 ULYANOVSKOE H/W        SYZRAN      ,"Россия, Астраханская область, Нариманов",46.690301,47.853623,0.05304086653829583,True,locality
335,335,1381.0,1942.0,33 MOSKOVSKAYA STR.       SYZRAN      ,"Московская улица, 33, Сызрань, Самарская область, Россия, 446026",53.16635400000001,48.480414,-0.012519504008530696,True,house
336,336,1384.0,1942.0,16 B.SEMENOVSKAYA         MOSCOW      ,"Россия, Москва, Семёновская набережная",55.77649200000001,37.702032,0.09567657386704748,True,street
337,337,1389.0,1942.0,317-2 LENINA AV.          TOMSK       ,"Россия, Томск",56.48464,84.947649,-0.07134697674904729,True,locality
338,338,1420.0,1942.0,98 50-LET OKTYABRYA       KURSK       ,"улица 50 лет Октября, 98, Курск, Россия, 305040",51.739715,36.146213,-0.0683921684559528,True,house
339,339,1458.0,1942.0,11-1 M.KATUKOVA STR.      MOSCOW      ,"улица Маршала Катукова, 11к1, Москва, Россия, 123181",55.810966,37.403863,0.007662173175953055,True,house
340,340,1461.0,1942.0,7 KOZHEVNICHESKAYA STR    MOSCOW      ,"Кожевническая улица, 7, Москва, Россия, 115114",55.729838,37.645717,0.06154364051585804,True,house
341,341,1484.0,1942.0,6 FRUNZE STR.             TOGLIATTI   ,"улица Фрунзе, 6, Тольятти, Самарская область, Россия, 445051",53.51401600000001,49.298222,-0.020623765864573814,True,house
342,342,1486.0,1942.0,30-2 RYAZANSKIY AV.       MOSCOW      ,"Рязанский проспект, 30к2, Москва, Россия, 109428",55.718096,37.784066,0.08038112469979125,True,house
343,343,1488.0,1942.0,57 KARLA MARKSA STR.      TOGLIATTI   ,"улица Карла Маркса, 57, Тольятти, Самарская область, Россия, 445011",53.51015500000001,49.41459,-0.030375178596135106,True,house
344,344,1490.0,1942.0,7 PEREVERTKINA STR.       VORONEZH    ,"улица Переверткина, 7, Воронеж, Россия, 394063",51.686534,39.256746,-0.008979471686485063,True,house
345,345,1492.0,1942.0,20G TKACHEVA STR.         VOLGOGRAD   ,"улица Ткачёва, 20, Волгоград, Россия, 400050",48.723991,44.51729,0.023295579214220204,True,house
346,346,1503.0,1942.0,17 MKR OLMINSKOGO         STARIY OSKOL,"микрорайон Ольминского, 17, Старый Оскол, Белгородская область, Россия",51.309219,37.87305300000001,-0.016651608678981668,True,house
347,347,1509.0,1942.0,116 SAVUSHKINA STR.       SANKT-PETERB,"улица Савушкина, 116, Санкт-Петербург, Россия, 197374",59.985998,30.218365,-0.02719308164227064,True,house
348,348,1518.0,1942.0,123 LENINGRADSKIY AV.     YAROSLAVL   ,"Ленинградский проспект, 123, Ярославль, Россия, 150060",57.69773100000001,39.757925,0.050501684519973805,True,locality
349,349,1524.0,1942.0,267 DOVATORA STR.         ROSTOV-ON-DO,"улица Доватора, 267, Ростов-на-Дону, Россия, 344090",47.23625,39.597846,0.03430743644967831,True,house
350,350,1526.0,1942.0,23 AKSAYSKIY AV.          AKSAY       ,"Аксайский проспект, 23, Аксай, Ростовская область, Россия, 346720",47.290051,39.846535,0.003805770978964359,True,house
351,351,1535.0,1942.0,2 LENINA STR.             KRASNOGORSK ,"улица Ленина, 2, Красногорск, Московская область, Россия",55.819454,37.320239,0.02367530357409494,True,locality
352,352,1539.0,1942.0,1/3 PROSPEKT CHEKISTOV    KRASNODAR   ,"проспект Чекистов, 1/3, микрорайон Юбилейный, Краснодар, Россия, 350089",45.027712,38.905622,0.049229523801944335,True,house
353,353,1541.0,1942.0,17 KULTUKSKIY TRAKT       SHELEKHOV   ,"Култукский тракт, 17, Шелехов, Иркутская область, Россия",52.205066,104.082285,-0.04546977716110423,True,house
354,354,1547.0,1942.0,147 KIROVA STR.           SAMARA      ,"улица Кирова, Промышленный район, Самара, Россия",53.211234,50.264019,0.04419046940561143,True,street
355,355,1558.0,1942.0,8 DMITRIYA DONSKOGO BLVD. MOSCOW      ,"бульвар Дмитрия Донского, 8, Москва, Россия, 117628",55.568064,37.573806,-0.09610618985956956,True,house
356,356,1561.0,1942.0,34 SIBIRSKIY TRAKT        KAZAN       ,"Сибирский тракт, 34, Казань, Республика Татарстан, Россия",55.815752,49.182744,-0.07729474277403403,True,house
357,357,1568.0,1942.0,1 NAGORNAYA STR.          ARKHANGELSK ,"Нагорная улица, 1, Архангельск, Россия, 163071",64.553811,40.551964,0.01590806849943831,True,locality
358,358,1569.0,1942.0,2G ROKOSSOVSKOGO STR      VOLGOGRAD   ,"улица Рокоссовского, 2, Волгоград, Россия, 400066",48.713833,44.498569,-0.06048600906558145,True,house
359,359,1577.0,1942.0,153/163 B.SADOVAYA STR    SARATOV     ,"Россия, Саратов, Большая Садовая улица, 153/163",51.541422,45.990024,-0.07808968350312964,True,house
360,360,1578.0,1942.0,10A SARATOVSKAYA STR      ENGELS      ,"Саратовская улица, 10А, Энгельс, Саратовская область, Россия, 413118",51.488557,46.113452,-0.09097819234113153,True,house
361,361,1585.0,1942.0,92 KARLA-MARKSA STR       KHABAROVSK  ,"улица Карла Маркса, 92, Хабаровск, Россия, 680013",48.492065,135.089766,-0.047840828148366696,True,house
362,362,1597.0,1942.0,1 ZVENIGORODSKAYA STR.    S.-PETERBURG,"Звенигородская улица, 1, Санкт-Петербург, Россия, 191119",59.922688,30.335182,-0.027209161366298255,True,house
363,363,1609.0,1942.0,17-1B POLITEKHNICHESKAYA  S.-PETERBURG,"Политехническая улица, 17к1, Санкт-Петербург, Россия, 194021",59.999035,30.366192,-0.008888891025265862,True,house
364,364,1618.0,1942.0,35A NEVSKIY AV.           S.-PETERBURG,"Невский проспект, 35, Санкт-Петербург, Россия, 191186",59.934172,30.332631,-0.024789589301745685,True,house
365,365,1623.0,1942.0,2/1A B.MOSKOVSKAYA STR.   S.-PETERBURG,"Большая Московская улица, 2/1, Санкт-Петербург, Россия, 191002",59.92741,30.348109,-0.07511119580916573,True,house
366,366,1634.0,1942.0,17-1B POLITEKHNICHESKAYA  S.-PETERBURG,"Политехническая улица, 17к1, Санкт-Петербург, Россия, 194021",59.999035,30.366192,-0.0308904259925197,True,house
367,367,1635.0,1942.0,29A POLITEKHNICHESKAYA ST S.-PETERBURG,"Политехническая улица, 29А, Санкт-Петербург, Россия, 194064",60.008932,30.370890000000006,-0.07653248174263184,True,house
368,368,1654.0,1942.0,45 KOSMONAVTOV AV.        S.-PETERBURG,"проспект Космонавтов, 45, Санкт-Петербург, Россия, 196233",59.851214,30.350139,-0.007565294526240019,True,locality
369,369,1659.0,1942.0,69 BUKHARESTSKAYA STR.    SANKT-PETERB,"Бухарестская улица, 69, Санкт-Петербург, Россия, 192286",59.849754,30.397974,-0.024739718819856645,True,house
370,370,1673.0,1942.0,16 RIZHSKIY AV.           PSKOV       ,"Рижский проспект, 16, Псков, Россия, 180007",57.81760600000001,28.315545,-0.05233747243524309,True,house
371,371,1911.0,3185.5,"Lenina ul., 204           Bogorodsk   ","улица Ленина, 204, Богородск, Нижегородская область, Россия, 607600",56.103251,43.513162,-0.12339282175354033,True,house
372,372,1927.0,3185.5,"Lenina pl., 5             Kstovo      ","площадь Ленина, 5, Кстово, Нижегородская область, Россия, 607657",56.151612,44.208718,-0.08863765569141964,True,house
373,373,2048.0,3185.5,"OBRUCHEVA, 27             MOSKVA      ","улица Обручева, 27к1, Москва, Россия, 117630",55.656859,37.536068,-0.11989334793677953,True,house
374,374,2058.0,3185.5,"LENINA, 217               TOMSK       ","проспект Ленина, 217, Томск, Россия, 634009",56.511615,84.944037,-0.07076842774963496,True,house
375,375,2060.0,3185.5,"KOMSOMOLSKIJ, 75          TOMSK       ","Комсомольский проспект, 75, Томск, Россия, 634050",56.468438,84.980994,-0.1072388101981512,True,house
376,376,2068.0,3185.5,"GAGARINA, 27              TOMSK       ","улица Гагарина, 27, Томск, Россия, 634050",56.479938,84.95108,-0.004544490182944736,True,house
377,377,2082.0,3185.5,"KURCHATOVA, 1             SEVERSK     ","улица Курчатова, 1, Северск, Томская область, Россия, 636037",56.589641,84.90209499999997,-0.08512316033661797,True,house
378,378,2093.0,3185.5,"AK.KOROLEVA,12            MOSKVA      ","улица Академика Королёва, 12, Москва, Россия, 127427",55.822878,37.606281,0.07469588682785817,True,house
379,379,2094.0,3185.5,"AK.KOROLEVA,12            MOSKVA      ","улица Академика Королёва, 12, Москва, Россия, 127427",55.822878,37.606281,0.003503468026472088,True,house
380,380,2096.0,3185.5,DRUJBY 11                 ORENBURG    ,"улица Дружбы, 11, Оренбург, Россия, 460052",51.834464,55.14765600000001,-0.10007253688846812,True,house
381,381,2106.0,3185.5,KARAGANDINSKAJA 92        ORENBURG    ,"Карагандинская улица, 92, Оренбург, Россия, 460036",51.785485,55.156055,-0.07545528159188256,True,house
382,382,2107.0,3185.5,"KOROSTELEVYH, 53          ORENBURG    ","проспект Братьев Коростелевых, 53, Оренбург, Россия, 460004",51.793345,55.070042,-0.0857875263302929,True,house
383,383,2111.0,3185.5,"CHKALOVA, 53-1            ORENBURG    ","улица Чкалова, 53/1, Оренбург, Россия, 460001",51.770846,55.138646,-0.14307562751905464,True,house
384,384,2113.0,3185.5,SHARLYKSKOE SH.1          ORENBURG    ,"Шарлыкское шоссе, 1, Оренбург, Россия",51.841887,55.11866800000001,-0.031751889640818744,True,house
385,385,2130.0,3185.5,"UL. LENINA, 156           MIHAJLOVSK  ","улица Ленина, 156, Михайловск, Шпаковский район, Ставропольский край, Россия, 356240",45.137164,42.009993,0.031472652105389534,True,house
386,386,2138.0,3185.5,UFA KUVYKINA 18           UFA         ,"улица Степана Кувыкина, 18, Уфа, Республика Башкортостан, Россия, 450092",54.707686,55.99978,-0.10489946592199,True,house
387,387,2153.0,3185.5,B.HMELNICKOGO 16          NOVOSIBIRSK ,"улица Богдана Хмельницкого, 16, Новосибирск, Россия, 630075",55.06930300000001,82.94223199999998,-0.14352393621960854,True,house
388,388,2160.0,3185.5,"UL. NARYMSKAJA, 102       NOVOSIBIRSK ","Нарымская улица, 102, Новосибирск, Россия, 630049",55.05155600000001,82.9002,0.010484287859117682,True,house
389,389,2162.0,3185.5,"PR. ENERGETIKOV, 8        NOVOSIBIRSK ","проезд Энергетиков, 8, Новосибирск, Россия, 630108",55.011293,82.874364,-0.06419505210179811,True,house
390,390,2166.0,3185.5,"PL.TRUDA, 1               NOVOSIBIRSK ","площадь Труда, 1, Новосибирск, Россия, 630108",54.99554000000001,82.868453,-0.07174258086566655,True,house
391,391,2179.0,3185.5,"Gasheka, 8                OMSK        ","улица Ярослава Гашека, 8, микрорайон Московка-2, Омск, Россия",54.90894,73.451576,-0.04000620302555637,True,house
392,392,2182.0,3185.5,10 LET OKTYABRA 182       OMSK        ,"улица 10 лет Октября, 182, Омск, Россия, 644031",54.989254,73.461017,-0.0007665437143668469,True,house
393,393,2184.0,3185.5,"NEFTEZAVODSKAJA,53        OMSK        ","Нефтезаводская улица, 53, Омск, Россия, 644065",55.058275,73.250703,-0.12439658399799668,True,house
394,394,2186.0,3185.5,"6-STANCIONNAYA, 2-2       OMSK        ","6-й Станционный переулок, 2, микрорайон Московка, Омск, Россия, 644120",54.923305000000006,73.47321600000002,-0.11140106023122888,True,house
395,395,2189.0,3185.5,"ZHUKOVA, 74/2             OMSK        ","улица Маршала Жукова, 74к2, Омск, Россия, 644010",54.974437,73.38812800000002,-0.1213679280206939,True,house
396,396,2193.0,3185.5,"BARHATOVOI, 2             OMSK        ","улица Бархатовой, 2, микрорайон Заозёрный, Омск, Россия, 644110",55.048611,73.325829,-0.001531947457428444,True,house
397,397,2200.0,3185.5,"VOKZALNAYA, 22            OMSK        ","Вокзальная улица, 22, Привокзальный микрорайон, Омск, Россия, 644005",54.94064399999999,73.39526,-0.05441728934469535,True,house
398,398,2206.0,3185.5,"PR. MARKSA, 29A           OMSK        ","проспект Карла Маркса, 29А, Омск, Россия, 644010",54.974189,73.38279200000002,-0.043961789441316616,True,house
399,399,2211.0,3185.5,70 LET OKTJABRJA 15       OMSK        ,"улица 70 лет Октября, 15, Омск, Россия, 644074",54.98208399999999,73.319047,0.035430433821350804,True,house
400,400,2217.0,3185.5,"ROSTOVKA, 23              OMSK        ","посёлок Ростовка, 23, Омский район, Омская область, Россия",55.017865,73.581427,-0.07648067809190587,True,house
401,401,2223.0,3185.5,"KRASNYJ PUT, 32           OMSK        ","улица Красный Путь, 32, Омск, Россия, 644122",55.001437,73.352393,0.03537364649081979,True,house
402,402,2227.0,3185.5,NIKOLAEVA 15              KRASNOJARSK ,"улица Николаева, 15, микрорайон Зелёная Роща, Советский район, Красноярск, Россия",56.055367,92.965688,0.06308008424190541,True,house
403,403,2229.0,3185.5,VESNY 1                   KRASNOJARSK ,"улица Весны, 1, микрорайон Взлётка, Советский район, Красноярск, Россия",56.034466,92.907836,-0.020708866784902108,True,house
404,404,2233.0,3185.5,MOSKOVSK. 70 KANSK        KANSK       ,"Московская улица, 70, Канск, Красноярский край, Россия, 663600",56.20411800000001,95.704633,0.03790539679558151,True,house
405,405,2236.0,3185.5,SOLNECHNAJA 1 IK7         ELITA       ,"Солнечная улица, 3, Москва, Россия, 115516",55.622263,37.666144,-0.14500123147475488,True,
406,406,2249.0,3185.5,"UL. CSHORSA, 80           KRASNOJARSK ","улица Щорса, 80, Красноярск, Россия, 660122",55.988575,92.939053,0.014625766745981003,True,house
407,407,2254.0,3185.5,MASHINOSTROITELEJ 6       DIVNOGORSK  ,"улица Машиностроителей, 6, Дивногорск, Красноярский край, Россия, 663090",55.956708,92.367993,0.00026844227219743227,True,house
408,408,2255.0,3185.5,METALLURGOV 34            KRASNOJARSK ,"проспект Металлургов, 34, Красноярск, Россия, 660005",56.046846,92.946805,0.011715426467259316,True,house
409,409,2267.0,3185.5,DZERZHINSKOGO 26          KRASNOJARSK ,"улица Дзержинского, 26, Красноярск, Россия, 660017",56.013361,92.856731,-0.03554081794482897,True,house
410,410,2270.0,3185.5,CHEHOVA 122 ABAKAN        ABAKAN      ,"улица Чехова, 122А, Абакан, Республика Хакасия, Россия, 655017",53.72836,91.435794,0.05417962894417566,True,house
411,411,2275.0,3185.5,"259V, BAYKALSKAYA         IRKUTSK     ","Байкальская улица, 259, Иркутск, Россия, 664050",52.257213,104.355265,-0.13314846120537496,True,house
412,412,2283.0,3185.5,"5, SEROVA ST.             KJAHTA      ","улица Серова, 13, город Кяхта, Республика Бурятия, Россия",50.352064,106.445897,-0.14500123147475488,True,house
413,413,2284.0,3185.5,"12, KVARTAL 192           ANGARSK     ","258-й квартал, 192, Ангарск, Иркутская область, Россия",52.510631,103.885294,-0.07004958780182967,True,house
414,414,2286.0,3185.5,"28A, LENINA ST.           GUSINOOZERSK","улица Ленина, 28А, Гусиноозёрск, Селенгинский район, Республика Бурятия, Россия, 671160",51.287683,106.534443,0.061213468618554936,True,house
415,415,2305.0,3185.5,UL.VOEVODINA 24           SAMARA      ,"улица Воеводина, 24, Самара, Россия, 443109",53.23553199999999,50.29882,-0.059229238248735994,True,house
416,416,2308.0,3185.5,"STARA ZAGORA,167G,1       SAMARA      ","улица Стара Загора, 167, Самара, Россия, 443087",53.24238199999999,50.230224,-0.07402811775297444,True,house
417,417,2315.0,3185.5,"NOVO-SADOVAJA,D.106       SAMARA      ","Ново-Садовая улица, 106, Самара, Россия, 443068",53.217187,50.148972,-0.06781028300815473,True,house
418,418,2321.0,3185.5,POBEDY 26                 NOVOKUJBYSHE,"проспект Победы, 26, Новокуйбышевск, Самарская область, Россия, 446204",53.096068,49.969875,-0.08390285191476354,True,house
419,419,2327.0,3185.5,"UL. A.NEVSKOGO, 53        KALININGRAD ","улица Александра Невского, 53, Калининград, Россия",54.731789,20.530879,0.06575351283831156,True,house
420,420,2333.0,3185.5,"UL.DZERZHINSKOGO,71       YAKUTSK     ","улица Дзержинского, 71, Якутск, Республика Саха (Якутия), Россия",62.06211500000001,129.739787,0.020818281865033626,True,house
421,421,2335.0,3185.5,"UL. B. CHIZHIKA, 3        JAKUTSK     ","улица Богдана Чижика, 3, Якутск, Республика Саха (Якутия), Россия, 677000",62.04438199999999,129.756388,-0.043360742542122487,True,house
422,422,2339.0,3185.5,"UL. KALVICA, 14-5         YAKUTSK     ","улица Кальвица, 14/5, Якутск, Республика Саха (Якутия), Россия, 677009",62.049759,129.7463,0.07537942432607445,True,house
423,423,2348.0,3185.5,"UL. KURASHOVA, 28         YAKUTSK     ","улица Курашова, 28, Якутск, Республика Саха (Якутия), Россия, 677000",62.03299300000001,129.736903,-0.06131522402243604,True,house
424,424,2357.0,3185.5,"UL. LENINA, 6             NERUNGRI    ","улица Ленина, 6, Советский территориальный округ, муниципальное образование Город Тула, Тульская область, Россия",54.200475,37.607691,0.02812289257707128,True,house
425,425,2358.0,3185.5,"UL. LENINA, 6             NERUNGRI    ","улица Ленина, 6, Советский территориальный округ, муниципальное образование Город Тула, Тульская область, Россия",54.200475,37.607691,0.06931806202429569,True,house
426,426,2372.0,3185.5,"KARLA MARKSA, 144G        HABAROVSK   ","улица Карла Маркса, 144, Хабаровск, Россия, 680031",48.504406,135.112314,-0.10507849052517099,True,house
427,427,2382.0,3185.5,LENINA 77                 SVOBODNYJ   ,"улица Ленина, 77, Свободный, Амурская область, Россия, 676456",51.38363,128.13208999999998,-0.0915144479111778,True,house
428,428,2388.0,3185.5,"KLUBNAYA, 23              FOKINO      ","Клубная улица, 23, Фокино, Приморский край, Россия, 692880",42.97496,132.408924,-0.04638552480581279,True,house
429,429,2410.0,3185.5,"PR. POBEDY, D.67A         PETROPAVLOVS","проспект Победы, 67, Петропавловск-Камчатский, Камчатский край, Россия, 683902",53.072021,158.587323,-0.003877507767979224,True,house
430,430,2413.0,3185.5,"PROLETARSKAYA, D.3        USSURIJSK   ","Пролетарская улица, 3, Уссурийск, Приморский край, Россия, 692512",43.801222,131.936464,-0.05014357600495797,True,house
431,431,2416.0,3185.5,"UL.SHILKINSKAYA, 42       VLADIVOSTOK ","Шилкинская улица, 38, Владивосток, Приморский край, Россия, 690066",43.118596,131.932035,0.020855039380651426,True,house
432,432,2417.0,3185.5,"UL.NEKRASOVA, 115A        USSURIJSK   ","улица Некрасова, 115А, Уссурийск, Приморский край, Россия, 692525",43.804267,131.949319,-0.02558628613942828,True,house
433,433,2423.0,3185.5,"KORABELNAYA NAB,D.4       VLADIVOSTOK ","улица Корабельная Набережная, 4, Владивосток, Приморский край, Россия",43.113937,131.889833,-0.08452755760636935,True,house
434,434,2425.0,3185.5,KRASNOZNAMENNAY 224       USSURIJSK   ,"Краснознамённая улица, 224, Уссурийск, Приморский край, Россия",43.813082,131.953748,-0.0387969181576469,True,house
435,435,2449.0,3185.5,"PR-T MIRA, D.255          U-SAHALINSK ","проспект Мира, 255, Южно-Сахалинск, Сахалинская область, Россия, 693013",46.934086,142.74626,-0.11946608587566478,True,house
436,436,2450.0,3185.5,"UKRAINSKAYA, 78           U-SAHALINSK ","Украинская улица, 78, Южно-Сахалинск, Сахалинская область, Россия",46.984218,142.720182,-0.09683584390781856,True,house
437,437,2463.0,3185.5,"VAHITOVA UL., 12          LENINOGORSK ","улица Вахитова, 12, Лениногорск, Республика Татарстан, Россия, 423258",54.594099,52.448201,-0.07599622617258556,True,house
438,438,2477.0,3185.5,60 LET OKTYABRYA-1        BELGOROD    ,"СНТ 60 лет Октября, 60, Старый Оскол, Белгородская область, Россия",51.285909,37.851161,-0.053138287446554335,True,house
439,439,2484.0,3185.5,ENISEJSKAJA D19           MOSKVA      ,"19-й микрорайон, Мытищи, Московская область, Россия",55.900824,37.699948,-0.009112798320391772,True,district
440,440,2491.0,3185.5,PRESNENSKAJA              MOSKVA      ,"Россия, Москва, Пресненская набережная",55.747043999999995,37.541719,0.006006035747644714,True,street
441,441,2494.0,3185.5,"PROFSOJUZNAJA,142         MOSKVA      ","Профсоюзная улица, 142, Москва, Россия, 117321",55.626213,37.51015200000001,-0.018489185489307447,True,house
442,442,2495.0,3185.5,ORSHANSKAJA D5            MOSKVA      ,"Оршанская улица, 5, Москва, Россия, 121552",55.740563,37.408382,0.01936905002815328,True,house
443,443,2539.0,3185.5,"HOROSHEVSKOE SH,V38       MOSKVA      ","Хорошёвское шоссе, 38, Москва, Россия, 123007",55.776502,37.53711,0.016730739994995608,True,house
444,444,2540.0,3185.5,"HOROSHEVSKOE SH,V38       MOSKVA      ","Хорошёвское шоссе, 38, Москва, Россия, 123007",55.776502,37.53711,0.027592190258665945,True,house
445,445,2541.0,3185.5,"HOROSHEVSKOE SH,V38       MOSKVA      ","Хорошёвское шоссе, 38, Москва, Россия, 123007",55.776502,37.53711,-0.060083858760055175,True,house
446,446,2542.0,3185.5,"HOROSHEVSKOE SH,V38       MOSKVA      ","Хорошёвское шоссе, 38, Москва, Россия, 123007",55.776502,37.53711,-0.08207247651595476,True,house
447,447,2543.0,3185.5,"HOROSHEVSKOE SH,V38       MOSKVA      ","Хорошёвское шоссе, 38, Москва, Россия, 123007",55.776502,37.53711,0.0010828060077148725,True,house
448,448,2544.0,3185.5,"HOROSHEVSKOE SH,V38       MOSKVA      ","Хорошёвское шоссе, 38, Москва, Россия, 123007",55.776502,37.53711,0.04158931371819972,True,house
449,449,2545.0,3185.5,"HOROSHEVSKOE SH,V38       MOSKVA      ","Хорошёвское шоссе, 38, Москва, Россия, 123007",55.776502,37.53711,0.0621392337408641,True,house
450,450,2555.0,3185.5,"NOSOVIHINSKOE SH,45       REUTOV      ","Носовихинское шоссе, 45, Реутов, Московская область, Россия, 143969",55.752283,37.887247,-0.032254425744358224,True,house
451,451,2557.0,3185.5,"KOMSOMOLSKAJA P.,2        MOSKVA      ","Россия, Ульяновск",54.316855000000004,48.402557,-0.07191304977656893,True,locality
452,452,2563.0,3185.5,"SORMOVSKIJ PR.,VL.9       MOSKVA      ","Сормовский проезд, 9, Москва, Россия, 109444",55.707725,37.800029,0.021793895798192263,True,house
453,453,2584.0,3185.5,"CHERVISHEVSKIJ, 23        TJUMEN      ","Червишевский тракт, 23, Тюмень, Россия",57.126236,65.523063,-0.08484274324029112,True,house
454,454,2586.0,3185.5,A. LOGUNOVA D.5A          TJUMEN      ,"улица Александра Логунова, 5А, Тюмень, Россия, 625016",57.120011,65.57389,-0.08251244618915754,True,district
455,455,2603.0,3185.5,RESPUBLIKI D.86 K1        TJUMEN      ,"улица Республики, 86к1, Тюмень, Россия, 625048",57.146261,65.552653,-0.0643096897079827,True,house
456,456,2611.0,3185.5,"TUL.KRASNOARM,PR,11       TULA        ","садовое товарищество Грибники, Венёвский район, Тульская область, Россия",54.606403,38.225867,-0.08872928508302658,True,house
457,457,2612.0,3185.5,"TUL.OKTJABRSKAJA,48       TULA        ","Октябрьская улица, 48, Тула, Россия, 300002",54.212282,37.621606,-0.1169736092258521,True,house
458,458,2618.0,3185.5,LETCH. PILJUTOVA 11       SANKT-PETERB,"улица Лётчика Пилютова, 11к1, Санкт-Петербург, Россия, 198206",59.840736,30.139187,-0.07927799530257625,True,house
459,459,2619.0,3185.5,"BUHARESTSKAJA, 89         SANKT-PETERB","Бухарестская улица, 89, Санкт-Петербург, Россия, 192283",59.833027,30.414054,-0.1272541928639112,True,house
460,460,2622.0,3185.5,"TOSNO, SOVETSKAJA 8       TOSNO       ","Советская улица, 8, Тосно, Тосненское городское поселение, Ленинградская область, Россия, 187000",59.54176700000001,30.880684,-0.005696744800391103,True,house
461,461,2628.0,3185.5,PR-KT LENINA  D. 25       BALASHIHA   ,"проспект Ленина, 25, Балашиха, Московская область, Россия, 143900",55.79766,37.939124,-0.03873668311773976,True,district
462,462,2634.0,3185.5,"K. POBEDY, 62             KOLPASHEVO  ","улица Победы, 62, Колпашево, Томская область, Россия, 636462",58.32495,82.891701,-0.08476983860060065,True,house
463,463,2653.0,3185.5,"PR-T LENINA, 46           VLADIMIR    ","проспект Ленина, 46, Владимир, Россия, 600022",56.118636,40.35205300000001,-0.04403393914914802,True,house
464,464,2670.0,3185.5,"UL. LENINSKAJA, 54        PETROPAVLOVS","Ленинская улица, 54, Петропавловск-Камчатский, Камчатский край, Россия",53.01953,158.647842,-0.06769643167631459,True,house
465,465,2674.0,3185.5,"UL. KIROVA, D.19          ARTEM       ","улица Кирова, 19, Артём, Приморский край, Россия",43.356278,132.184022,-0.08524555335600953,True,house
466,466,2680.0,3185.5,CHB L.KOMSOMOLA 21A       CHEBOKSARY  ,"улица Ленинского Комсомола, 21А, Чебоксары, Чувашская Республика, Россия, 428020",56.107584,47.280948,-0.038247354094269916,True,house
467,467,2692.0,3185.5,"UL.TUHACHEVSKOGO,17       STAVROPOL   ","улица Тухачевского, 17, Ставрополь, Россия, 355040",45.016027,41.912472,-0.07126259400450323,True,house
468,468,2693.0,3185.5,"TUHACHEVSKOGO,14,K2       STAVROPOL   ","улица Тухачевского, 14/2, Ставрополь, Россия, 355040",45.012427,41.918427,-0.06916027116326295,True,house
469,469,2698.0,3185.5,ST.M.KRASNYJ PROSPE       NOVOSIBIRSK ,"метро Красный проспект, Ленинская линия, Новосибирск, Россия",55.041168000000006,82.917429,-0.04506033731284805,True,metro
470,470,2702.0,3185.5,"UL.BALTIJSKAJA,29         NOVOSIBIRSK ","Балтийская улица, 29, микрорайон Шлюз, Советский район, Новосибирск, Россия, 630058",54.854942,83.050658,-0.10417183219485134,True,house
471,471,2706.0,3185.5,"UL.MALAHOVA,62            BARNAUL     ","улица Малахова, 62, Барнаул, Алтайский край, Россия, 656055",53.366218,83.703743,-0.06867219532995042,True,house
472,472,2712.0,3185.5,"UL.OSTROVSKOGO, 34B       BARNAUL     ","улица Островского, 34/202, Барнаул, Алтайский край, Россия, 656066",53.37078,83.689666,-0.0788806783289728,True,house
473,473,2732.0,3185.5,"UL.VLASIHINSKAJA,65       BARNAUL     ","Власихинская улица, 65, Барнаул, Алтайский край, Россия, 656006",53.326218,83.690492,-0.05195133362220145,True,house
474,474,2744.0,3185.5,"ZAOZERNAIA, 11-1          OMSK        ","Заозёрная улица, 11/1, Омск, Россия, 644090",55.04659399999999,73.316505,-0.012265404452061484,True,house
475,475,2746.0,3185.5,"KR.G. ROSSIJSKAJA,6       OMSK        ","Россия, Омск",54.98934200000001,73.368212,-0.1226587789971816,True,locality
476,476,2748.0,3185.5,"HIMIKOV, 30               OMSK        ","улица Химиков, 30, микрорайон Городок Нефтяников, Омск, Россия, 644100",55.043123,73.295727,-0.0030518230876046357,True,house
477,477,2749.0,3185.5,"KOSMICHESKIJ, 24A         OMSK        ","Космический проспект, 24А, посёлок Чкаловский, Омск, Россия",54.973889,73.456292,-0.13036510817011462,True,house
478,478,2778.0,3185.5,ALEKSEEVA 17              KRASNOJARSK ,"улица Алексеева, 17, Красноярск, Россия, 660098",56.053663,92.919146,0.014713920565570516,True,house
479,479,2785.0,3185.5,MOLOKOVA 17               KRASNOJARSK ,"улица Молокова, 17, Красноярск, Россия, 660135",56.03929300000001,92.9025,0.045232240029516695,True,house
480,480,2786.0,3185.5,"9 PJATILETKI, 28          SOSNOVOBORSK","улица 9 Пятилетки, 28, Сосновоборск, Красноярский край, Россия, 662501",56.122354,93.329281,-0.052861204877190836,True,house
481,481,2787.0,3185.5,UL. TOLSTOGO 69           KRASNOJARSK ,"улица Толстого, 69, Красноярск, Россия, 660028",56.021055,92.809857,-0.14329929946967082,True,house
482,482,2795.0,3185.5,LENINA 160                KRASNOJARSK ,"улица Ленина, 160, Красноярск, Россия, 660021",56.011973,92.838082,-0.10506056034569257,True,house
483,483,2817.0,3185.5,"UL.LAZURNAJA, 4-3         NOVOSIBIRSK ","Лазурная улица, 4/3, Новосибирск, Россия, 630133",55.033754,83.00931800000002,-0.1032287403218178,True,house
484,484,2818.0,3185.5,"PR.STROITELEJ, 16         BARNAUL     ","проспект Строителей, 16, Барнаул, Алтайский край, Россия, 656015",53.352004,83.76357,-0.05672871380437384,True,house
485,485,2820.0,3185.5,"TJULENINA,9               NOVOSIBIRSK ","улица Тюленина, 9, микрорайон Родники, Калининский район, Новосибирск, Россия",55.10892,82.950218,-0.0639828208754296,True,house
486,486,2822.0,3185.5,"PR.ENERGETIKOV,9          NOVOSIBIRSK ","проезд Энергетиков, 9, Новосибирск, Россия, 630108",55.009094,82.877427,-0.0319717034306937,True,house
487,487,2823.0,3185.5,"UL.KIROVA,25              NOVOSIBIRSK ","улица Кирова, 25, Новосибирск, Россия, 630102",55.018283,82.942205,0.015958990430350668,True,house
488,488,2829.0,3185.5,"UL. FRUNZE, 238           NOVOSIBIRSK ","улица Фрунзе, 238, Новосибирск, Россия, 630112",55.03896999999999,82.960728,-0.104632077661578,True,house
489,489,2836.0,3185.5,"UL.JARINSKAJA,18          NOVOSIBIRSK ","Яринская улица, 12, Новосибирск, Россия, 630029",55.020987,82.88385,-0.13030685513744053,True,house
490,490,2839.0,3185.5,KRAS.RAB 42               KRASNOJARSK ,"проспект имени Газеты Красноярский Рабочий, 42, Красноярск, Россия, 660014",56.016637,92.985855,0.019359186108852143,True,house
491,491,2840.0,3185.5,MOLOKOVA 17               KRASNOJARSK ,"улица Молокова, 17, Красноярск, Россия, 660135",56.03929300000001,92.9025,0.03691258160970274,True,house
492,492,8383.0,5478.0,"D. 63B, UL. SMOL'NAYA     MOSKVA G    ","Смольная улица, 63Б, Москва, Россия, 125445",55.870112,37.469808,-0.05272977715877928,True,house
493,493,8387.0,5478.0,"D. 2A, UL. MAKOVSKOGO     ODINTSOVO G ","улица Маковского, 2А, Одинцово, Московская область, Россия, 143006",55.670732,37.280956,-0.008778708434706921,True,district
494,494,8392.0,5478.0,"D. 1, UL. BATAREINAYA     VYBORG G    ","Батарейная улица, 1, Выборг, Ленинградская область, Россия, 188810",60.7059,28.767801,-0.09485338910171796,True,street
495,495,8393.0,5478.0,"D. 3, UL. KARLA MARKSA    IVANOVO G   ","улица Карла Маркса, 3, Иваново, Россия, 153002",57.016865,40.973633,0.012759739946002586,True,street
496,496,8396.0,5478.0,"D. 9, UL. VIZIROVA        NOVOCHERKASS","улица Визирова, 9/2, Новочеркасск, Ростовская область, Россия, 346406",47.484707,40.06172700000001,-0.05783531659402823,True,house
497,497,8412.0,5478.0,"D. 12, SOOR. 1, LIT. A, P SANKT-PETERB","А-181 Скандинавия, 132-й километр, Выборгский район, Ленинградская область, Россия",60.667633,28.913885,-0.025082099392995855,True,locality
498,498,8413.0,5478.0,PL. KOMENDANTSKAYA        SANKT-PETERB,"Россия, Санкт-Петербург, Комендантская площадь",60.007488,30.259867,-0.0373994933043668,True,street
499,499,8418.0,5478.0,"D. 16, UL. BAUMANA        YOSHKAR-OLA ","улица Баумана, 16, Йошкар-Ола, Республика Марий Эл, Россия, 424019",56.64108,47.84341,-0.05144623138887379,True,house
500,500,8420.0,5478.0,"D. 27 V, UL. OKRUZHNAYA   PENZA G     ","Окружная улица, 27, Пенза, Россия, 440031",53.161398,44.979024,-0.05661898228515608,True,house
501,501,8421.0,5478.0,"D. 41, UL. MIRA           PENZA G     ","улица Мира, 41, Пенза, Россия",53.188433,44.970049,0.03869055331949868,True,house
502,502,8422.0,5478.0,"D. 162 B, UL. LADOZHSKAYA PENZA G     ","Ладожская улица, 162, Пенза, Россия, 440064",53.221144,44.877361,-0.03654116180983314,True,house
503,503,8423.0,5478.0,"D. 248, UL. PROLETARSKAYA RUBTSOVSK G ","Пролетарская улица, 248, Рубцовск, Алтайский край, Россия, 658223",51.504391,81.21892199999998,-0.06897166315830244,True,house
504,504,8425.0,5478.0,"D. 1, UL. DEPOVSKAYA      CHITA G     ","Деповская улица, 2, Чита, Забайкальский край, Россия, 672014",52.033735,113.464721,-0.10312499884173408,True,house
505,505,8433.0,5478.0,"3/1, UL. TURKMENSKAYA     BIYSK G     ","3-й микрорайон, 1, Московский, Москва, Россия",55.59690500000001,37.344538,-0.050626685528738495,True,house
506,506,8436.0,5478.0,"D. 23, KORP. 1, UL. MATRO BIYSK G     ","Россия, Алтайский край, Бийск, улица Александра Матросова, 23",52.497617,85.14703,-0.13724014160742906,True,house
507,507,8439.0,5478.0,"D. 40, UL. UBILEINAYA     TOLYATTI G  ","Юбилейная улица, 40, Тольятти, Самарская область, Россия, 445037",53.50101899999999,49.273231,-0.0256018772497254,True,house
508,508,8448.0,5478.0,"D. 60A, UL. MOSKOVSKAYA   DIMITROVGRAD","Московская улица, 60А, Димитровград, Ульяновская область, Россия, 433513",54.211229,49.598718,-0.08021517471444972,True,house
509,509,8449.0,5478.0,"D. 85 A, UL. BELANOVA     KALININGRAD ","улица Беланова, 85А, микрорайон Чкаловск, Калининград, Россия",54.772639,20.446985,-0.08508649845141465,True,house
510,510,8454.0,5478.0,"D. 13, LIT. A, UL. IZHORS KOLPINO G   ","деревня Колпино, Краснохолмский район, Тверская область, Россия",58.104241,37.012252,-0.10651484558081188,True,
511,511,8458.0,5478.0,"D. 1, UL. ZAVODSKAYA      ATAMANOVKA P","Заводская улица, 3, посёлок городского типа Атамановка, Читинский район, Забайкальский край, Россия, 672530",51.917638,113.653439,-0.03172118961546838,True,house
512,512,8461.0,5478.0,"D. 25, UL. GROMOVOI       TOLYATTI G  ","улица Громовой, 25, Тольятти, Самарская область, Россия, 445045",53.488189,49.476538,-0.02263188388857657,True,house
513,513,8472.0,5478.0,"D. 7, UL. SUHE-BATORA     BARNAUL G   ","улица Сухэ-Батора, 7, Барнаул, Алтайский край, Россия, 656066",53.35055300000001,83.692702,-0.07075914878198795,True,house
514,514,4725.0,5478.0,"D. 72, UL. REVOLUCIONNAYA TOLYATTI G  ","Революционная улица, 72, Тольятти, Самарская область, Россия, 445028",53.510048,49.270401,-0.06912429312675038,True,house
515,515,4728.0,5478.0,"D. 56, UL. FRUNZE         NIZHNIY TAGI","улица Фрунзе, 56, Нижний Тагил, Свердловская область, Россия, 622002",57.922688,59.940447,-0.13293370541329255,True,house
516,516,4731.0,5478.0,"D. 16V, PR-KT KALININA    BARNAUL G   ","проспект Калинина, 16, Барнаул, Алтайский край, Россия, 656002",53.36120500000001,83.77127800000002,-0.028967345964293977,True,house
517,517,4734.0,5478.0,"D. 118, UL. URINA         BARNAUL G   ","улица Юрина, 118, Барнаул, Алтайский край, Россия, 656053",53.360625,83.73398900000002,-0.05105073110998789,True,house
518,518,4735.0,5478.0,"D. 22, UL. PANFILOVCEV    BARNAUL G   ","улица Панфиловцев, 22, Барнаул, Алтайский край, Россия, 656057",53.345489,83.674224,-0.01133231412954627,True,house
519,519,4737.0,5478.0,"D. 109, UL. 1 MAYA        PAVLOVSKIY P","улица 1 Мая, село Павловская Слобода, городской округ Истра, Московская область, Россия",55.81999,37.083982,-0.0707498714673147,True,house
520,520,4742.0,5478.0,"D. 81/1, UL. LERMONTOVA   IRKUTSK G   ","улица Лермонтова, 81/1, Иркутск, Россия, 664074",52.264737,104.259765,-0.05785703847370945,True,house
521,521,4755.0,5478.0,"D. 22, UL. KIROVA         KHOR RP     ","улица Кирова, 22, рабочий посёлок Хор, район им. Лазо, Хабаровский край, Россия",47.886051,134.963643,-0.01868338660601012,True,house
522,522,4758.0,5478.0,"D. 4, SH. UZHNOE          TOLYATTI G  ","Южное шоссе, 4, Тольятти, Самарская область, Россия, 445004",53.549109,49.360017,-0.008516902259528142,True,district
523,523,4813.0,5478.0,"D. 33, UL. SVETLAYA       UTASH P     ","Светлая улица, поселок Уташ, городской округ Анапа, Краснодарский край, Россия",45.090152,37.311561,-0.14371187653826864,True,street
524,524,4814.0,5478.0,"D. 6, UL. KOMMUNISTICHESK KRASNOUSOLSK","Коммунистическая улица, 6, посёлок Липки, район Южное Бутово, Юго-Западный административный округ, Москва, Россия, 117623",55.506072,37.58077700000001,-0.0712438608367541,True,house
525,525,4816.0,5478.0,"D. 9A, UL. 8 MARTA        OKTYABRSKIY ","улица 8 Марта, 8А, Октябрьский, Республика Башкортостан, Россия",54.505095,53.515786,-0.11002235082406607,True,street
526,526,4827.0,5478.0,"D. 148, UL. KIROVA        ARTEM G     ","улица Кирова, 148, Артём, Приморский край, Россия, 692751",43.377283,132.237831,0.026193718523694717,True,house
527,527,4828.0,5478.0,"D. 9, UL. BERINGA         TOMSK G     ","улица Беринга, 9, Томск, Россия, 634063",56.517137,85.035738,-0.02550061836721866,True,house
528,528,4830.0,5478.0,"D. 17, UL. NOVOURAL'SKAYA NOVOSIBIRSK ","Новоуральская улица, 17, микрорайон Пашино, Калининский район, Новосибирск, Россия, 630900",55.176249,82.96186,0.050092314647517545,True,house
529,529,4837.0,5478.0,"D. 106, UL. POPOVA        SMOLENSK G  ","улица Попова, 106, Смоленск, Россия, 214036",54.758454,32.110792,-0.0216362059411326,True,house
530,530,4850.0,5478.0,"D. 15A, UL. MORISA TOREZA NOVOKUZNETSK","улица Тореза, 15А, Новокузнецк, Кемеровская область, Россия, 654038",53.836801,87.179154,-0.0482728157423929,True,house
531,531,4852.0,5478.0,"D. 30, UL. KIROVA         YAKUTSK G   ","улица Кирова, 30, Якутск, Республика Саха (Якутия), Россия, 677027",62.03274,129.720877,0.05271521202871396,True,house
532,532,4863.0,5478.0,"D. 4, UL. YALAGINA        ELEKTROSTAL ","улица Ялагина, 4, Электросталь, Московская область, Россия, 144010",55.770644,38.433934,-0.017382206465991756,True,house
533,533,4869.0,5478.0,"D. 1, UL. SPORTIVNAYA     SELYATINO RP","Спортивная улица, 1, рабочий посёлок Селятино, Наро-Фоминский городской округ, Московская область, Россия, 143345",55.519626,36.98682,0.027658123589268745,True,house
534,534,4871.0,5478.0,UL. GOGOLYA               NOVOSIBIRSK ,"Россия, Новосибирск, улица Гоголя",55.044686,82.945421,-0.05702365445008326,True,street
535,535,4878.0,5478.0,"D. 76A, UL. KLUCHEVSKAYA  ULAN-UDE G  ","Ключевская улица, 76А, Улан-Удэ, Республика Бурятия, Россия, 670013",51.82032,107.658478,0.023846034604568654,True,house
536,536,4883.0,5478.0,"D. 171, UL. MOSKOVSKAYA   KIROV G     ","Московская улица, 171, Киров, Россия, 610048",58.602761,49.5972,-0.0684809028542829,True,house
537,537,4884.0,5478.0,"D. 38, UL. HRUSTAL'NAYA   ULYANOVSK G ","Хрустальная улица, 38, Ульяновск, Россия, 432044",54.258569,48.33371,-0.08701531092411803,True,house
538,538,4886.0,5478.0,"D. 12, UL. TRUDA          DOMNA S     ","улица Труда, 12, село Домна, Читинский район, Забайкальский край, Россия",51.898425,113.158611,0.012533430519873944,True,street
539,539,4893.0,5478.0,"D. 3A, PROEZD KOSMICHESKI PETROPAVLOVS","Жуков проезд, 3с2, Москва, Россия, 115054",55.723496,37.637416,0.04227041867904867,True,house
540,540,4898.0,5478.0,"D. 8A, UL. KUZNECOVA      CHELYABINSK ","улица Кузнецова, 8А, Челябинск, Россия, 454028",55.115023,61.349212,-0.10276352248669478,True,house
541,541,4900.0,5478.0,"D. 14, UL. DEREVENSKAYA   VLADIVOSTOK ","Деревенская улица, 14, Владивосток, Приморский край, Россия",43.135789,131.927876,-0.014064453284374834,True,house
542,542,4907.0,5478.0,"D. 41, UL. BELYAEVSKAYA   ORENBURG G  ","Беляевская улица, 41, Оренбург, Россия, 460045",51.719254,55.13192700000001,-0.11399564966271175,True,house
543,543,4908.0,5478.0,"D. 13, UL. UZHNYI OBHOD   STAVROPOL G ","улица Южный Обход, 13, Ставрополь, Россия, 355021",44.989687,41.935208,-0.07743166603526251,True,house
544,544,4909.0,5478.0,"D. 73, UL. ROZY LUKSEMBUR TOMSK G     ","улица Розы Люксембург, 73, Томск, Россия, 634009",56.501471,84.9517,-0.031002738025954664,True,house
545,545,4912.0,5478.0,"D. 14, UL. MIHEENKO       KHOTKOVO G  ","улица Михеенко, 12, Хотьково, Сергиево-Посадский район, Московская область, Россия, 141371",56.251352,37.979001,-0.03399750933735314,True,house
546,546,4913.0,5478.0,"D. 7A, UL. PIONERSKAYA    POLETAEVO P ","Пионерская улица, 7А, посёлок Полетаево, Сосновский район, Челябинская область, Россия, 456520",55.03812900000001,61.11581999999999,-0.11021991633331572,True,street
547,547,4928.0,5478.0,"D. 58, UL. USPENSKOGO     VLADIVOSTOK ","улица Успенского, 58, Владивосток, Приморский край, Россия, 690024",43.236473,132.012228,-0.032360843570977973,True,house
548,548,4929.0,5478.0,"D. 37A, SH. OKRUZHNOE     ELABUGA G   ","Окружное шоссе, 37А, Елабуга, муниципальное образование город Елабуга, Республика Татарстан, Россия, 423606",55.777089,52.009535,-0.08715494787885147,True,house
549,549,4933.0,5478.0,"D. 2, PER. SADOVYI        PETROPAVLOVS","Садовый переулок, 2, Петропавловск-Камчатский, Камчатский край, Россия, 683013",52.980532,158.680451,0.015084687504418553,True,house
550,550,4934.0,5478.0,"D. 48A, TRAKT SARMANOVSKI NABEREZHNYE ","Сармановский тракт, 48А, Набережные Челны, Республика Татарстан, Россия, 423803",55.69463199999999,52.337582,-0.06069207829555508,True,house
551,551,4937.0,5478.0,"D. 42, UL. REVOLUCII 1905 ULAN-UDE G  ","улица Революции 1905 года, 23, Улан-Удэ, Республика Бурятия, Россия, 670034",51.837714,107.5892,-0.10431301345591597,True,house
552,552,4946.0,5478.0,"D. 78, UL. LENINA         OREKHOVO-ZUE","улица Ленина, 78, Орехово-Зуево, Московская область, Россия, 142600",55.80799200000001,38.987386,0.0035101554365334856,True,house
553,553,4951.0,5478.0,"D. 55, PR-KT LENINA       BARNAUL G   ","проспект Ленина, 55, Барнаул, Алтайский край, Россия, 656049",53.345607,83.778249,0.03771620167914034,True,house
554,554,4958.0,5478.0,"D. 36, UL. KIROVA         ULYANOVSK G ","улица Кирова, 36, Ульяновск, Россия",54.29421800000001,48.373416,-0.14500123147475488,True,house
555,555,4966.0,5478.0,"D. 3-31, UL. KRASNAYA     SAMARA G    ","Красная улица, 3, Самара, Россия",53.317182,50.29687,-0.04371280949720821,True,house
556,556,4979.0,5478.0,"D. 28, UL. GAGARINA       YAROSLAVL G ","улица Гагарина, 28, Ярославль, Россия, 150046",57.584217,39.838675,-0.0303324705358602,True,house
557,557,4982.0,5478.0,"D. 126, UL. BLUHERA       CHELYABINSK ","улица Блюхера, 126, Челябинск, Россия, 454087",55.108539,61.34931,0.022936095980423333,True,house
558,558,4983.0,5478.0,"D. 5B, B-R UNOSTI         BELGOROD G  ","бульвар Юности, 5, Белгород, Россия, 308036",50.560848,36.56825,-0.030537789395437782,True,house
559,559,4985.0,5478.0,"D. 4, UL. SHERBAKOVA      EKATERINBURG","улица Щербакова, 4, Екатеринбург, Свердловская область, Россия, 620023",56.788549,60.64901999999999,-0.023284027893631317,True,house
560,560,4997.0,5478.0,"D. 2, UL. PIONERSKOI PRAV KRASNOYARSK ","улица имени Газеты Пионерская Правда, 2, Красноярск, Россия, 660122",55.99127900000001,92.939286,0.04963927080097207,True,locality
561,561,5001.0,5478.0,LIT. U                    ROSHCHINSKIY,"4-й Рощинский проезд, 8к2, Москва, Россия, 115191",55.709480000000006,37.609002,-0.12198453723417002,True,house
